{"type":"FeatureCollection","name":"observationsv2_1","crs":{"type":"name","properties":{"name":"urn:ogc:def:crs:OGC:1.3:CRS84"}},"features":[{"type":"Feature","properties":{"id":104987410.0,"observed_on":"2021-09-08T17:10:00.000Z","latitude":39.80796,"longitude":-75.57906,"place":"Winterthur, Pennsbury Township, DE, USA","inaturl":"https://www.inaturalist.org/observations/104987410","photos":"https://inaturalist-open-data.s3.amazonaws.com/photos/176045204/medium.jpeg"},"geometry":{"type":"Point","coordinates":[-75.579056,39.807957]}},{"type":"Feature","properties":{"id":104916468.0,"observed_on":"2021-07-30T04:43:00.000Z","latitude":39.80603,"longitude":-75.57298,"place":"Winterthur, Pennsbury Township, DE, USA","inaturl":"https://www.inaturalist.org/observations/104916468","photos":"https://inaturalist-open-data.s3.amazonaws.com/photos/175911024/medium.jpeg"},"geometry":{"type":"Point","coordinates":[-75.572975,39.80603]}},{"type":"Feature","properties":{"id":104915052.0,"observed_on":"2021-09-19T16:00:00.000Z","latitude":40.44721,"longitude":-80.01032,"place":"W General Robinson St, Pittsburgh, PA, US","inaturl":"https://www.inaturalist.org/observations/104915052","photos":"https://inaturalist-open-data.s3.amazonaws.com/photos/175908130/medium.jpg"},"geometry":{"type":"Point","coordinates":[-80.01032,40.447212]}},{"type":"Feature","properties":{"id":104884046.0,"observed_on":"2022-01-13T20:10:00.000Z","latitude":40.47416,"longitude":-74.42412,"place":"North Brunswick Township, NJ, USA","inaturl":"https://www.inaturalist.org/observations/104884046","photos":"https://inaturalist-open-data.s3.amazonaws.com/photos/175845327/medium.jpeg"},"geometry":{"type":"Point","coordinates":[-74.42412,40.474163]}},{"type":"Feature","properties":{"id":104876283.0,"observed_on":"2022-01-13T16:40:00.000Z","latitude":40.47337,"longitude":-74.42394,"place":"North Brunswick Township, NJ, USA","inaturl":"https://www.inaturalist.org/observations/104876283","photos":"https://inaturalist-open-data.s3.amazonaws.com/photos/175831235/medium.jpg"},"geometry":{"type":"Point","coordinates":[-74.42394,40.473366]}},{"type":"Feature","properties":{"id":104871982.0,"observed_on":"2022-01-13T16:42:00.000Z","latitude":40.4761,"longitude":-74.42419,"place":"North Brunswick Township, NJ, USA","inaturl":"https://www.inaturalist.org/observations/104871982","photos":"https://inaturalist-open-data.s3.amazonaws.com/photos/175823436/medium.jpeg"},"geometry":{"type":"Point","coordinates":[-74.424194,40.476105]}},{"type":"Feature","properties":{"id":104871979.0,"observed_on":"2022-01-13T16:33:00.000Z","latitude":40.47606,"longitude":-74.42417,"place":"North Brunswick Township, NJ, USA","inaturl":"https://www.inaturalist.org/observations/104871979","photos":"https://inaturalist-open-data.s3.amazonaws.com/photos/175823086/medium.jpeg"},"geometry":{"type":"Point","coordinates":[-74.42417,40.47606]}},{"type":"Feature","properties":{"id":104871977.0,"observed_on":"2022-01-13T16:33:00.000Z","latitude":40.47598,"longitude":-74.42416,"place":"North Brunswick Township, NJ, USA","inaturl":"https://www.inaturalist.org/observations/104871977","photos":"https://inaturalist-open-data.s3.amazonaws.com/photos/175823074/medium.jpeg"},"geometry":{"type":"Point","coordinates":[-74.424164,40.475975]}},{"type":"Feature","properties":{"id":104731788.0,"observed_on":"2020-09-12T20:00:00.000Z","latitude":39.9806,"longitude":-75.15574,"place":"1801 N Broad St, Philadelphia, PA 19122, USA","inaturl":"https://www.inaturalist.org/observations/104731788","photos":"https://static.inaturalist.org/photos/175555545/medium.jpeg"},"geometry":{"type":"Point","coordinates":[-75.15574,39.980595]}},{"type":"Feature","properties":{"id":104702816.0,"observed_on":"2022-01-08T14:26:27.000Z","latitude":40.28275,"longitude":-76.92946,"place":"Enola, PA, USA","inaturl":"https://www.inaturalist.org/observations/104702816","photos":"https://inaturalist-open-data.s3.amazonaws.com/photos/175500698/medium.jpeg"},"geometry":{"type":"Point","coordinates":[-76.92946,40.28275]}},{"type":"Feature","properties":{"id":104659641.0,"observed_on":"2022-01-09T14:59:00.000Z","latitude":40.65395,"longitude":-74.0203,"place":"Sunset Park, Brooklyn, NY, USA","inaturl":"https://www.inaturalist.org/observations/104659641","photos":"https://inaturalist-open-data.s3.amazonaws.com/photos/175415598/medium.jpeg"},"geometry":{"type":"Point","coordinates":[-74.0203,40.65395]}},{"type":"Feature","properties":{"id":104659640.0,"observed_on":"2022-01-09T14:59:00.000Z","latitude":40.65395,"longitude":-74.02029,"place":"Sunset Park, Brooklyn, NY, USA","inaturl":"https://www.inaturalist.org/observations/104659640","photos":"https://inaturalist-open-data.s3.amazonaws.com/photos/175415563/medium.jpeg"},"geometry":{"type":"Point","coordinates":[-74.020294,40.65395]}},{"type":"Feature","properties":{"id":104659639.0,"observed_on":"2022-01-09T14:58:00.000Z","latitude":40.65393,"longitude":-74.02035,"place":"Sunset Park, Brooklyn, NY, USA","inaturl":"https://www.inaturalist.org/observations/104659639","photos":"https://inaturalist-open-data.s3.amazonaws.com/photos/175415527/medium.jpg"},"geometry":{"type":"Point","coordinates":[-74.020355,40.653927]}},{"type":"Feature","properties":{"id":104659637.0,"observed_on":"2022-01-09T14:58:00.000Z","latitude":40.65385,"longitude":-74.02062,"place":"Sunset Park, Brooklyn, NY, USA","inaturl":"https://www.inaturalist.org/observations/104659637","photos":"https://inaturalist-open-data.s3.amazonaws.com/photos/175415518/medium.jpg"},"geometry":{"type":"Point","coordinates":[-74.02062,40.653854]}},{"type":"Feature","properties":{"id":104659636.0,"observed_on":"2022-01-09T14:57:00.000Z","latitude":40.65365,"longitude":-74.02085,"place":"Sunset Park, Brooklyn, NY, USA","inaturl":"https://www.inaturalist.org/observations/104659636","photos":"https://inaturalist-open-data.s3.amazonaws.com/photos/175415511/medium.jpg"},"geometry":{"type":"Point","coordinates":[-74.02085,40.65365]}},{"type":"Feature","properties":{"id":104659634.0,"observed_on":"2022-01-09T14:57:00.000Z","latitude":40.65385,"longitude":-74.02062,"place":"Sunset Park, Brooklyn, NY, USA","inaturl":"https://www.inaturalist.org/observations/104659634","photos":"https://inaturalist-open-data.s3.amazonaws.com/photos/175415487/medium.jpg"},"geometry":{"type":"Point","coordinates":[-74.020615,40.653847]}},{"type":"Feature","properties":{"id":104659633.0,"observed_on":"2022-01-09T14:57:00.000Z","latitude":40.65368,"longitude":-74.0208,"place":"Sunset Park, Brooklyn, NY, USA","inaturl":"https://www.inaturalist.org/observations/104659633","photos":"https://inaturalist-open-data.s3.amazonaws.com/photos/175415470/medium.jpg"},"geometry":{"type":"Point","coordinates":[-74.0208,40.653683]}},{"type":"Feature","properties":{"id":104659631.0,"observed_on":"2022-01-09T14:52:00.000Z","latitude":40.65355,"longitude":-74.0209,"place":"Sunset Park, Brooklyn, NY, USA","inaturl":"https://www.inaturalist.org/observations/104659631","photos":"https://inaturalist-open-data.s3.amazonaws.com/photos/175415404/medium.jpeg"},"geometry":{"type":"Point","coordinates":[-74.0209,40.653545]}},{"type":"Feature","properties":{"id":104659630.0,"observed_on":"2022-01-09T14:34:00.000Z","latitude":40.65388,"longitude":-74.0205,"place":"Sunset Park, Brooklyn, NY, USA","inaturl":"https://www.inaturalist.org/observations/104659630","photos":"https://inaturalist-open-data.s3.amazonaws.com/photos/175415218/medium.jpg"},"geometry":{"type":"Point","coordinates":[-74.0205,40.65388]}},{"type":"Feature","properties":{"id":104659629.0,"observed_on":"2022-01-09T14:32:00.000Z","latitude":40.65376,"longitude":-74.02069,"place":"Sunset Park, Brooklyn, NY, USA","inaturl":"https://www.inaturalist.org/observations/104659629","photos":"https://inaturalist-open-data.s3.amazonaws.com/photos/175415184/medium.jpg"},"geometry":{"type":"Point","coordinates":[-74.02069,40.65376]}},{"type":"Feature","properties":{"id":104659628.0,"observed_on":"2022-01-09T14:31:00.000Z","latitude":40.65389,"longitude":-74.0204,"place":"Sunset Park, Brooklyn, NY, USA","inaturl":"https://www.inaturalist.org/observations/104659628","photos":"https://inaturalist-open-data.s3.amazonaws.com/photos/175415188/medium.jpg"},"geometry":{"type":"Point","coordinates":[-74.0204,40.653885]}},{"type":"Feature","properties":{"id":104611710.0,"observed_on":"2021-10-03T15:54:00.000Z","latitude":39.74599,"longitude":-75.14562,"place":"Gloucester, New Jersey, United States","inaturl":"https://www.inaturalist.org/observations/104611710","photos":"https://inaturalist-open-data.s3.amazonaws.com/photos/175324575/medium.jpg"},"geometry":{"type":"Point","coordinates":[-75.145615,39.745987]}},{"type":"Feature","properties":{"id":104553061.0,"observed_on":"2021-08-30T17:08:00.000Z","latitude":40.75341,"longitude":-74.28965,"place":"Cherry Ln, West Orange, NJ 07052, USA","inaturl":"https://www.inaturalist.org/observations/104553061","photos":"https://inaturalist-open-data.s3.amazonaws.com/photos/175214498/medium.jpeg"},"geometry":{"type":"Point","coordinates":[-74.28965,40.753407]}},{"type":"Feature","properties":{"id":104520536.0,"observed_on":"2022-01-06T19:35:00.000Z","latitude":39.93712,"longitude":-75.59393,"place":"Robert B. Gordon Natural Area","inaturl":"https://www.inaturalist.org/observations/104520536","photos":"https://inaturalist-open-data.s3.amazonaws.com/photos/175151413/medium.jpeg"},"geometry":{"type":"Point","coordinates":[-75.59393,39.93712]}},{"type":"Feature","properties":{"id":104497120.0,"observed_on":"2022-01-06T20:11:38.000Z","latitude":40.74437,"longitude":-74.63318,"place":"Mosle Rd, Far Hills, NJ, US","inaturl":"https://www.inaturalist.org/observations/104497120","photos":"https://inaturalist-open-data.s3.amazonaws.com/photos/175107313/medium.jpg"},"geometry":{"type":"Point","coordinates":[-74.63318,40.744373]}},{"type":"Feature","properties":{"id":104471280.0,"observed_on":"2022-01-05T21:33:45.000Z","latitude":40.65628,"longitude":-74.13789,"place":"Schuyler Pl W, Bayonne, NJ, US","inaturl":"https://www.inaturalist.org/observations/104471280","photos":"https://inaturalist-open-data.s3.amazonaws.com/photos/175056920/medium.jpg"},"geometry":{"type":"Point","coordinates":[-74.137886,40.65628]}},{"type":"Feature","properties":{"id":104467366.0,"observed_on":"2021-06-11T05:47:09.000Z","latitude":40.3573,"longitude":-74.66722,"place":"princeton nj","inaturl":"https://www.inaturalist.org/observations/104467366","photos":"https://static.inaturalist.org/photos/175049115/medium.jpg"},"geometry":{"type":"Point","coordinates":[-74.66722,40.3573]}},{"type":"Feature","properties":{"id":104437824.0,"observed_on":"2022-01-05T20:09:15.000Z","latitude":40.79045,"longitude":-74.67522,"place":"North Rd, Chester, NJ, US","inaturl":"https://www.inaturalist.org/observations/104437824","photos":"https://inaturalist-open-data.s3.amazonaws.com/photos/175013108/medium.jpg"},"geometry":{"type":"Point","coordinates":[-74.675224,40.79045]}},{"type":"Feature","properties":{"id":104370012.0,"observed_on":"2022-01-04T21:22:58.000Z","latitude":40.03905,"longitude":-75.88277,"place":"West Caln Township, PA, USA","inaturl":"https://www.inaturalist.org/observations/104370012","photos":"https://inaturalist-open-data.s3.amazonaws.com/photos/174867057/medium.jpeg"},"geometry":{"type":"Point","coordinates":[-75.882774,40.039047]}},{"type":"Feature","properties":{"id":104352650.0,"observed_on":"2021-09-19T15:40:38.000Z","latitude":40.95538,"longitude":-74.22149,"place":"685 hamburg turnpike","inaturl":"https://www.inaturalist.org/observations/104352650","photos":"https://static.inaturalist.org/photos/174837659/medium.jpg"},"geometry":{"type":"Point","coordinates":[-74.22149,40.955376]}},{"type":"Feature","properties":{"id":104352649.0,"observed_on":"2021-09-19T15:41:11.000Z","latitude":40.95538,"longitude":-74.22149,"place":"685 hamburg turnpike","inaturl":"https://www.inaturalist.org/observations/104352649","photos":"https://static.inaturalist.org/photos/174837656/medium.jpg"},"geometry":{"type":"Point","coordinates":[-74.22149,40.955376]}},{"type":"Feature","properties":{"id":104352570.0,"observed_on":"2021-09-19T19:40:38.000Z","latitude":40.95538,"longitude":-74.22149,"place":"685 hamburg turnpike","inaturl":"https://www.inaturalist.org/observations/104352570","photos":"https://static.inaturalist.org/photos/174837659/medium.jpg"},"geometry":{"type":"Point","coordinates":[-74.22149,40.955376]}},{"type":"Feature","properties":{"id":104352566.0,"observed_on":"2021-09-19T19:41:11.000Z","latitude":40.95538,"longitude":-74.22149,"place":"685 hamburg turnpike","inaturl":"https://www.inaturalist.org/observations/104352566","photos":"https://static.inaturalist.org/photos/174837656/medium.jpg"},"geometry":{"type":"Point","coordinates":[-74.22149,40.955376]}},{"type":"Feature","properties":{"id":104139508.0,"observed_on":"2022-01-01T18:40:47.000Z","latitude":40.31278,"longitude":-77.04851,"place":"Marysville, PA, US","inaturl":"https://www.inaturalist.org/observations/104139508","photos":"https://inaturalist-open-data.s3.amazonaws.com/photos/174463969/medium.jpg"},"geometry":{"type":"Point","coordinates":[-77.04851,40.31278]}},{"type":"Feature","properties":{"id":104134747.0,"observed_on":"2022-01-01T21:02:00.000Z","latitude":40.47287,"longitude":-74.42396,"place":"North Brunswick Township, NJ, USA","inaturl":"https://www.inaturalist.org/observations/104134747","photos":"https://inaturalist-open-data.s3.amazonaws.com/photos/174454129/medium.jpeg"},"geometry":{"type":"Point","coordinates":[-74.42396,40.47287]}},{"type":"Feature","properties":{"id":103994675.0,"observed_on":"2021-12-30T18:57:49.000Z","latitude":40.49821,"longitude":-76.64499,"place":"Rush Township, PA, USA","inaturl":"https://www.inaturalist.org/observations/103994675","photos":"https://inaturalist-open-data.s3.amazonaws.com/photos/174186019/medium.jpeg"},"geometry":{"type":"Point","coordinates":[-76.64499,40.49821]}},{"type":"Feature","properties":{"id":103930016.0,"observed_on":"2021-10-29T14:08:19.000Z","latitude":40.47956,"longitude":-74.43796,"place":"Rutgers University - New Brunswick, New Brunswick, NJ, US","inaturl":"https://www.inaturalist.org/observations/103930016","photos":"https://inaturalist-open-data.s3.amazonaws.com/photos/174071715/medium.jpg"},"geometry":{"type":"Point","coordinates":[-74.43796,40.479557]}},{"type":"Feature","properties":{"id":103903778.0,"observed_on":"2021-12-29T15:28:16.000Z","latitude":39.99535,"longitude":-75.91299,"place":"Coatesville, PA, US","inaturl":"https://www.inaturalist.org/observations/103903778","photos":"https://inaturalist-open-data.s3.amazonaws.com/photos/174020042/medium.jpg"},"geometry":{"type":"Point","coordinates":[-75.912994,39.995346]}},{"type":"Feature","properties":{"id":103857726.0,"observed_on":"2021-06-13T14:54:00.000Z","latitude":40.40819,"longitude":-74.70702,"place":"354 C.R. 518, Blawenburg, Somerset Co., NJ","inaturl":"https://www.inaturalist.org/observations/103857726","photos":"https://inaturalist-open-data.s3.amazonaws.com/photos/173929154/medium.jpeg"},"geometry":{"type":"Point","coordinates":[-74.707016,40.40819]}},{"type":"Feature","properties":{"id":103832639.0,"observed_on":"2021-12-28T18:00:23.000Z","latitude":42.2545,"longitude":-71.7382,"place":"Shrewsbury, MA 01545, USA","inaturl":"https://www.inaturalist.org/observations/103832639","photos":"https://inaturalist-open-data.s3.amazonaws.com/photos/173881492/medium.jpeg"},"geometry":{"type":"Point","coordinates":[-71.738205,42.254498]}},{"type":"Feature","properties":{"id":103658624.0,"observed_on":"2021-12-25T19:12:17.000Z","latitude":40.7743,"longitude":-74.44792,"place":"Pippins Way, Morristown, NJ, US","inaturl":"https://www.inaturalist.org/observations/103658624","photos":"https://inaturalist-open-data.s3.amazonaws.com/photos/173542220/medium.jpg"},"geometry":{"type":"Point","coordinates":[-74.44792,40.774296]}},{"type":"Feature","properties":{"id":103635892.0,"observed_on":"2021-10-01T21:40:32.000Z","latitude":40.18982,"longitude":-76.72714,"place":"Grubb St, Royalton, PA, US","inaturl":"https://www.inaturalist.org/observations/103635892","photos":"https://inaturalist-open-data.s3.amazonaws.com/photos/173500568/medium.jpg"},"geometry":{"type":"Point","coordinates":[-76.72714,40.189816]}},{"type":"Feature","properties":{"id":103437060.0,"observed_on":"2021-12-20T18:48:09.000Z","latitude":40.44896,"longitude":-75.88727,"place":"Blandon, PA, USA","inaturl":"https://www.inaturalist.org/observations/103437060","photos":"https://inaturalist-open-data.s3.amazonaws.com/photos/173116735/medium.jpeg"},"geometry":{"type":"Point","coordinates":[-75.88727,40.44896]}},{"type":"Feature","properties":{"id":103435802.0,"observed_on":"2021-12-21T15:49:00.000Z","latitude":40.65381,"longitude":-74.02052,"place":"Sunset Park, Brooklyn, NY, USA","inaturl":"https://www.inaturalist.org/observations/103435802","photos":"https://inaturalist-open-data.s3.amazonaws.com/photos/173111020/medium.jpg"},"geometry":{"type":"Point","coordinates":[-74.02052,40.653805]}},{"type":"Feature","properties":{"id":103208992.0,"observed_on":"2021-12-17T16:32:00.000Z","latitude":40.08049,"longitude":-75.2291,"place":"Northwest Philadelphia, Philadelphia, PA, USA","inaturl":"https://www.inaturalist.org/observations/103208992","photos":"https://inaturalist-open-data.s3.amazonaws.com/photos/172682745/medium.jpeg"},"geometry":{"type":"Point","coordinates":[-75.2291,40.080494]}},{"type":"Feature","properties":{"id":103201940.0,"observed_on":"2021-12-16T18:54:00.000Z","latitude":40.79601,"longitude":-73.95907,"place":"Central Park, New York, New York, United States","inaturl":"https://www.inaturalist.org/observations/103201940","photos":"https://inaturalist-open-data.s3.amazonaws.com/photos/172672235/medium.jpg"},"geometry":{"type":"Point","coordinates":[-73.95907,40.79601]}},{"type":"Feature","properties":{"id":103053946.0,"observed_on":"2021-12-14T16:23:52.000Z","latitude":40.79024,"longitude":-75.60325,"place":"Palmerton, PA, US","inaturl":"https://www.inaturalist.org/observations/103053946","photos":"https://inaturalist-open-data.s3.amazonaws.com/photos/172395288/medium.jpg"},"geometry":{"type":"Point","coordinates":[-75.60325,40.79024]}},{"type":"Feature","properties":{"id":102965465.0,"observed_on":"2021-12-02T16:55:00.000Z","latitude":40.64981,"longitude":-74.17751,"place":"Elizabeth, NJ, USA","inaturl":"https://www.inaturalist.org/observations/102965465","photos":"https://inaturalist-open-data.s3.amazonaws.com/photos/172224898/medium.jpeg"},"geometry":{"type":"Point","coordinates":[-74.177505,40.64981]}},{"type":"Feature","properties":{"id":102959800.0,"observed_on":"2021-12-12T16:32:32.000Z","latitude":40.52525,"longitude":-74.18756,"place":"Staten Island, New York, NY, US","inaturl":"https://www.inaturalist.org/observations/102959800","photos":"https://inaturalist-open-data.s3.amazonaws.com/photos/172218106/medium.jpg"},"geometry":{"type":"Point","coordinates":[-74.18756,40.525253]}},{"type":"Feature","properties":{"id":102877948.0,"observed_on":"2021-08-13T19:30:00.000Z","latitude":40.9128,"longitude":-74.92287,"place":"330 State Park Rd, Hope, NJ 07844, USA","inaturl":"https://www.inaturalist.org/observations/102877948","photos":"https://inaturalist-open-data.s3.amazonaws.com/photos/172066275/medium.jpeg"},"geometry":{"type":"Point","coordinates":[-74.922874,40.9128]}},{"type":"Feature","properties":{"id":102871095.0,"observed_on":"2021-07-13T12:26:00.000Z","latitude":39.73877,"longitude":-75.14688,"place":"Mantua Township, NJ, USA","inaturl":"https://www.inaturalist.org/observations/102871095","photos":"https://inaturalist-open-data.s3.amazonaws.com/photos/172053346/medium.jpeg"},"geometry":{"type":"Point","coordinates":[-75.14688,39.738766]}},{"type":"Feature","properties":{"id":102767351.0,"observed_on":"2021-10-02T21:43:00.000Z","latitude":39.74379,"longitude":-75.30385,"place":"Woolwich Township, NJ, USA","inaturl":"https://www.inaturalist.org/observations/102767351","photos":"https://inaturalist-open-data.s3.amazonaws.com/photos/171859453/medium.jpeg"},"geometry":{"type":"Point","coordinates":[-75.30385,39.743786]}},{"type":"Feature","properties":{"id":102745505.0,"observed_on":"2020-07-25T20:46:00.000Z","latitude":41.04584,"longitude":-75.24791,"place":"Pike County, PA, USA","inaturl":"https://www.inaturalist.org/observations/102745505","photos":"https://inaturalist-open-data.s3.amazonaws.com/photos/171816386/medium.jpeg"},"geometry":{"type":"Point","coordinates":[-75.24791,41.045837]}},{"type":"Feature","properties":{"id":102735062.0,"observed_on":"2021-12-08T19:59:00.000Z","latitude":40.47383,"longitude":-74.42223,"place":"North Brunswick Township, NJ, USA","inaturl":"https://www.inaturalist.org/observations/102735062","photos":"https://inaturalist-open-data.s3.amazonaws.com/photos/171796581/medium.jpeg"},"geometry":{"type":"Point","coordinates":[-74.42223,40.47383]}},{"type":"Feature","properties":{"id":102645824.0,"observed_on":"2021-09-13T03:59:00.000Z","latitude":40.63724,"longitude":-74.03677,"place":"464 Bay Ridge Ave, Brooklyn, NY 11220, USA","inaturl":"https://www.inaturalist.org/observations/102645824","photos":"https://inaturalist-open-data.s3.amazonaws.com/photos/171632048/medium.jpg"},"geometry":{"type":"Point","coordinates":[-74.036766,40.637238]}},{"type":"Feature","properties":{"id":102582883.0,"observed_on":"2021-10-13T18:59:38.000Z","latitude":40.6357,"longitude":-74.34563,"place":"Dartmoor St, Westfield, NJ, US","inaturl":"https://www.inaturalist.org/observations/102582883","photos":"https://inaturalist-open-data.s3.amazonaws.com/photos/171515028/medium.jpg"},"geometry":{"type":"Point","coordinates":[-74.34563,40.635696]}},{"type":"Feature","properties":{"id":102561561.0,"observed_on":"2021-12-05T21:09:36.000Z","latitude":39.83408,"longitude":-76.49065,"place":"Guinston Rd, Airville, PA, US","inaturl":"https://www.inaturalist.org/observations/102561561","photos":"https://inaturalist-open-data.s3.amazonaws.com/photos/171474420/medium.jpg"},"geometry":{"type":"Point","coordinates":[-76.490654,39.834084]}},{"type":"Feature","properties":{"id":102558958.0,"observed_on":"2021-07-30T19:13:00.000Z","latitude":39.71598,"longitude":-75.72765,"place":"New Castle County, DE, USA","inaturl":"https://www.inaturalist.org/observations/102558958","photos":"https://inaturalist-open-data.s3.amazonaws.com/photos/171468920/medium.jpg"},"geometry":{"type":"Point","coordinates":[-75.727646,39.71598]}},{"type":"Feature","properties":{"id":102445024.0,"observed_on":"2021-06-13T15:53:00.000Z","latitude":39.73434,"longitude":-75.14768,"place":"Mantua Township, NJ, USA","inaturl":"https://www.inaturalist.org/observations/102445024","photos":"https://inaturalist-open-data.s3.amazonaws.com/photos/171248950/medium.jpeg"},"geometry":{"type":"Point","coordinates":[-75.147675,39.734337]}},{"type":"Feature","properties":{"id":102427419.0,"observed_on":"2021-11-01T14:47:00.000Z","latitude":40.97089,"longitude":-74.78822,"place":"Green Township, NJ, USA","inaturl":"https://www.inaturalist.org/observations/102427419","photos":"https://inaturalist-open-data.s3.amazonaws.com/photos/171215105/medium.jpg"},"geometry":{"type":"Point","coordinates":[-74.78822,40.970894]}},{"type":"Feature","properties":{"id":102412779.0,"observed_on":"2021-11-09T21:57:03.000Z","latitude":40.32343,"longitude":-76.89127,"place":"Harrisburg, PA, USA","inaturl":"https://www.inaturalist.org/observations/102412779","photos":"https://inaturalist-open-data.s3.amazonaws.com/photos/171188046/medium.jpeg"},"geometry":{"type":"Point","coordinates":[-76.891266,40.323425]}},{"type":"Feature","properties":{"id":102384738.0,"observed_on":"2021-10-29T19:30:49.000Z","latitude":40.49943,"longitude":-74.56332,"place":"Amwell Rd, Somerset, NJ, US","inaturl":"https://www.inaturalist.org/observations/102384738","photos":"https://inaturalist-open-data.s3.amazonaws.com/photos/171132652/medium.jpg"},"geometry":{"type":"Point","coordinates":[-74.56332,40.499428]}},{"type":"Feature","properties":{"id":102384437.0,"observed_on":"2021-10-29T19:07:42.000Z","latitude":40.50005,"longitude":-74.56364,"place":"Amwell Rd, Somerset, NJ, US","inaturl":"https://www.inaturalist.org/observations/102384437","photos":"https://inaturalist-open-data.s3.amazonaws.com/photos/171132037/medium.jpg"},"geometry":{"type":"Point","coordinates":[-74.563644,40.500053]}},{"type":"Feature","properties":{"id":102378506.0,"observed_on":"2021-09-05T21:38:00.000Z","latitude":41.50481,"longitude":-73.96958,"place":"Beacon, NY 12508, USA","inaturl":"https://www.inaturalist.org/observations/102378506","photos":"https://inaturalist-open-data.s3.amazonaws.com/photos/171119865/medium.jpeg"},"geometry":{"type":"Point","coordinates":[-73.96958,41.504814]}},{"type":"Feature","properties":{"id":102375083.0,"observed_on":"2021-12-02T21:30:04.000Z","latitude":40.01008,"longitude":-74.13216,"place":"Arizona Ave, Toms River, NJ, US","inaturl":"https://www.inaturalist.org/observations/102375083","photos":"https://inaturalist-open-data.s3.amazonaws.com/photos/171113392/medium.jpg"},"geometry":{"type":"Point","coordinates":[-74.13216,40.010082]}},{"type":"Feature","properties":{"id":102353045.0,"observed_on":"2021-12-02T13:58:31.000Z","latitude":40.46781,"longitude":-74.70286,"place":"Hillsborough Township, NJ, USA","inaturl":"https://www.inaturalist.org/observations/102353045","photos":"https://inaturalist-open-data.s3.amazonaws.com/photos/171073499/medium.jpeg"},"geometry":{"type":"Point","coordinates":[-74.70286,40.467808]}},{"type":"Feature","properties":{"id":102329614.0,"observed_on":"2021-08-08T15:16:00.000Z","latitude":40.74835,"longitude":-74.32322,"place":"Short Hills, Millburn, NJ, USA","inaturl":"https://www.inaturalist.org/observations/102329614","photos":"https://inaturalist-open-data.s3.amazonaws.com/photos/171030400/medium.jpeg"},"geometry":{"type":"Point","coordinates":[-74.32322,40.74835]}},{"type":"Feature","properties":{"id":102329613.0,"observed_on":"2021-08-08T15:00:00.000Z","latitude":40.71464,"longitude":-74.36461,"place":"Summit, NJ, USA","inaturl":"https://www.inaturalist.org/observations/102329613","photos":"https://inaturalist-open-data.s3.amazonaws.com/photos/171030393/medium.jpeg"},"geometry":{"type":"Point","coordinates":[-74.36461,40.714638]}},{"type":"Feature","properties":{"id":102275922.0,"observed_on":"2021-08-07T19:21:00.000Z","latitude":40.81217,"longitude":-74.27226,"place":"West Orange, NJ 07052, USA","inaturl":"https://www.inaturalist.org/observations/102275922","photos":"https://inaturalist-open-data.s3.amazonaws.com/photos/170930353/medium.jpeg"},"geometry":{"type":"Point","coordinates":[-74.272255,40.812172]}},{"type":"Feature","properties":{"id":102189717.0,"observed_on":"2021-10-29T18:47:40.000Z","latitude":40.50063,"longitude":-74.56346,"place":"Amwell Rd, Somerset, NJ, US","inaturl":"https://www.inaturalist.org/observations/102189717","photos":"https://inaturalist-open-data.s3.amazonaws.com/photos/170773084/medium.jpg"},"geometry":{"type":"Point","coordinates":[-74.56346,40.50063]}},{"type":"Feature","properties":{"id":102146324.0,"observed_on":"2021-11-26T18:19:45.000Z","latitude":40.44905,"longitude":-75.8841,"place":"Blandon, PA, USA","inaturl":"https://www.inaturalist.org/observations/102146324","photos":"https://inaturalist-open-data.s3.amazonaws.com/photos/170693985/medium.jpeg"},"geometry":{"type":"Point","coordinates":[-75.8841,40.449047]}},{"type":"Feature","properties":{"id":102146115.0,"observed_on":"2021-11-26T18:24:09.000Z","latitude":40.44912,"longitude":-75.884,"place":"Blandon, PA, USA","inaturl":"https://www.inaturalist.org/observations/102146115","photos":"https://inaturalist-open-data.s3.amazonaws.com/photos/170693660/medium.jpeg"},"geometry":{"type":"Point","coordinates":[-75.883995,40.449116]}},{"type":"Feature","properties":{"id":102146017.0,"observed_on":"2021-11-26T18:01:39.000Z","latitude":40.44902,"longitude":-75.88431,"place":"Blandon, PA, USA","inaturl":"https://www.inaturalist.org/observations/102146017","photos":"https://inaturalist-open-data.s3.amazonaws.com/photos/170693533/medium.jpeg"},"geometry":{"type":"Point","coordinates":[-75.88431,40.449017]}},{"type":"Feature","properties":{"id":102146002.0,"observed_on":"2021-11-25T16:32:21.000Z","latitude":40.75337,"longitude":-75.53677,"place":"Pennsylvania, US","inaturl":"https://www.inaturalist.org/observations/102146002","photos":"https://inaturalist-open-data.s3.amazonaws.com/photos/170693479/medium.jpeg"},"geometry":{"type":"Point","coordinates":[-75.536766,40.753365]}},{"type":"Feature","properties":{"id":102145937.0,"observed_on":"2021-11-25T16:31:27.000Z","latitude":40.72876,"longitude":-75.5382,"place":"Laurys Station, PA 18059, USA","inaturl":"https://www.inaturalist.org/observations/102145937","photos":"https://inaturalist-open-data.s3.amazonaws.com/photos/170693402/medium.jpeg"},"geometry":{"type":"Point","coordinates":[-75.5382,40.72876]}},{"type":"Feature","properties":{"id":102133771.0,"observed_on":"2021-11-25T16:34:00.000Z","latitude":40.72875,"longitude":-75.53822,"place":"Lehigh County, PA, USA","inaturl":"https://www.inaturalist.org/observations/102133771","photos":"https://inaturalist-open-data.s3.amazonaws.com/photos/170671299/medium.jpg"},"geometry":{"type":"Point","coordinates":[-75.538216,40.728745]}},{"type":"Feature","properties":{"id":100937517.0,"observed_on":"2021-11-12T17:12:29.000Z","latitude":40.59661,"longitude":-80.23195,"place":"Ambridge","inaturl":"https://www.inaturalist.org/observations/100937517","photos":"https://inaturalist-open-data.s3.amazonaws.com/photos/168519406/medium.jpeg"},"geometry":{"type":"Point","coordinates":[-80.23195,40.59661]}},{"type":"Feature","properties":{"id":102133766.0,"observed_on":"2021-11-25T16:32:00.000Z","latitude":40.72872,"longitude":-75.53829,"place":"Lehigh, Pennsylvania, United States","inaturl":"https://www.inaturalist.org/observations/102133766","photos":"https://inaturalist-open-data.s3.amazonaws.com/photos/170671283/medium.jpg"},"geometry":{"type":"Point","coordinates":[-75.53829,40.728718]}},{"type":"Feature","properties":{"id":102133765.0,"observed_on":"2021-11-25T16:31:00.000Z","latitude":40.72876,"longitude":-75.5382,"place":"Lehigh, Pennsylvania, United States","inaturl":"https://www.inaturalist.org/observations/102133765","photos":"https://inaturalist-open-data.s3.amazonaws.com/photos/170671267/medium.jpg"},"geometry":{"type":"Point","coordinates":[-75.5382,40.72876]}},{"type":"Feature","properties":{"id":102133761.0,"observed_on":"2021-11-25T16:28:00.000Z","latitude":40.72855,"longitude":-75.53825,"place":"Lehigh, Pennsylvania, United States","inaturl":"https://www.inaturalist.org/observations/102133761","photos":"https://inaturalist-open-data.s3.amazonaws.com/photos/170671243/medium.jpg"},"geometry":{"type":"Point","coordinates":[-75.538246,40.728554]}},{"type":"Feature","properties":{"id":102133759.0,"observed_on":"2021-11-24T21:22:00.000Z","latitude":40.40763,"longitude":-75.9688,"place":"Berks County, PA, USA","inaturl":"https://www.inaturalist.org/observations/102133759","photos":"https://inaturalist-open-data.s3.amazonaws.com/photos/170671199/medium.jpg"},"geometry":{"type":"Point","coordinates":[-75.9688,40.407627]}},{"type":"Feature","properties":{"id":102133757.0,"observed_on":"2021-11-24T21:13:00.000Z","latitude":40.40776,"longitude":-75.96883,"place":"Berks County, PA, USA","inaturl":"https://www.inaturalist.org/observations/102133757","photos":"https://inaturalist-open-data.s3.amazonaws.com/photos/170671163/medium.jpg"},"geometry":{"type":"Point","coordinates":[-75.96883,40.407764]}},{"type":"Feature","properties":{"id":102133756.0,"observed_on":"2021-11-24T21:07:00.000Z","latitude":40.40768,"longitude":-75.96883,"place":"Berks County, PA, USA","inaturl":"https://www.inaturalist.org/observations/102133756","photos":"https://inaturalist-open-data.s3.amazonaws.com/photos/170671156/medium.jpg"},"geometry":{"type":"Point","coordinates":[-75.96883,40.40768]}},{"type":"Feature","properties":{"id":102133754.0,"observed_on":"2021-11-24T21:06:00.000Z","latitude":40.40766,"longitude":-75.96881,"place":"Berks, Pennsylvania, United States","inaturl":"https://www.inaturalist.org/observations/102133754","photos":"https://inaturalist-open-data.s3.amazonaws.com/photos/170671149/medium.jpg"},"geometry":{"type":"Point","coordinates":[-75.96881,40.40766]}},{"type":"Feature","properties":{"id":102133751.0,"observed_on":"2021-11-24T20:39:00.000Z","latitude":40.40567,"longitude":-75.97415,"place":"Berks, Pennsylvania, United States","inaturl":"https://www.inaturalist.org/observations/102133751","photos":"https://inaturalist-open-data.s3.amazonaws.com/photos/170671113/medium.jpg"},"geometry":{"type":"Point","coordinates":[-75.97415,40.405666]}},{"type":"Feature","properties":{"id":102133744.0,"observed_on":"2021-11-24T20:20:00.000Z","latitude":40.40429,"longitude":-75.9747,"place":"Berks, Pennsylvania, United States","inaturl":"https://www.inaturalist.org/observations/102133744","photos":"https://inaturalist-open-data.s3.amazonaws.com/photos/170669428/medium.jpg"},"geometry":{"type":"Point","coordinates":[-75.9747,40.40429]}},{"type":"Feature","properties":{"id":102133743.0,"observed_on":"2021-11-24T20:14:00.000Z","latitude":40.40415,"longitude":-75.97477,"place":"Berks County, PA, USA","inaturl":"https://www.inaturalist.org/observations/102133743","photos":"https://inaturalist-open-data.s3.amazonaws.com/photos/170669413/medium.jpg"},"geometry":{"type":"Point","coordinates":[-75.97477,40.404152]}},{"type":"Feature","properties":{"id":102133742.0,"observed_on":"2021-11-24T20:14:00.000Z","latitude":40.40415,"longitude":-75.97479,"place":"Berks County, PA, USA","inaturl":"https://www.inaturalist.org/observations/102133742","photos":"https://inaturalist-open-data.s3.amazonaws.com/photos/170669405/medium.jpg"},"geometry":{"type":"Point","coordinates":[-75.974785,40.40415]}},{"type":"Feature","properties":{"id":102133740.0,"observed_on":"2021-11-24T20:11:00.000Z","latitude":40.40418,"longitude":-75.97485,"place":"Berks County, PA, USA","inaturl":"https://www.inaturalist.org/observations/102133740","photos":"https://inaturalist-open-data.s3.amazonaws.com/photos/170669399/medium.jpg"},"geometry":{"type":"Point","coordinates":[-75.974846,40.404182]}},{"type":"Feature","properties":{"id":102133738.0,"observed_on":"2021-11-24T20:09:00.000Z","latitude":40.40412,"longitude":-75.97487,"place":"Berks County, PA, USA","inaturl":"https://www.inaturalist.org/observations/102133738","photos":"https://inaturalist-open-data.s3.amazonaws.com/photos/170669346/medium.jpg"},"geometry":{"type":"Point","coordinates":[-75.97487,40.40412]}},{"type":"Feature","properties":{"id":102133720.0,"observed_on":"2021-11-24T19:33:00.000Z","latitude":40.40374,"longitude":-75.96748,"place":"Berks County, PA, USA","inaturl":"https://www.inaturalist.org/observations/102133720","photos":"https://inaturalist-open-data.s3.amazonaws.com/photos/170668041/medium.jpg"},"geometry":{"type":"Point","coordinates":[-75.96748,40.403736]}},{"type":"Feature","properties":{"id":102133718.0,"observed_on":"2021-11-24T19:25:00.000Z","latitude":40.40435,"longitude":-75.96962,"place":"Berks County, PA, USA","inaturl":"https://www.inaturalist.org/observations/102133718","photos":"https://inaturalist-open-data.s3.amazonaws.com/photos/170667992/medium.jpg"},"geometry":{"type":"Point","coordinates":[-75.96962,40.404346]}},{"type":"Feature","properties":{"id":102133711.0,"observed_on":"2021-11-24T19:06:00.000Z","latitude":40.40548,"longitude":-75.96916,"place":"Berks County, PA, USA","inaturl":"https://www.inaturalist.org/observations/102133711","photos":"https://inaturalist-open-data.s3.amazonaws.com/photos/170667907/medium.jpg"},"geometry":{"type":"Point","coordinates":[-75.96916,40.40548]}},{"type":"Feature","properties":{"id":102126653.0,"observed_on":"2021-11-09T23:22:00.000Z","latitude":37.5789,"longitude":-77.54132,"place":"Athletic Complex, Richmond, VA, USA","inaturl":"https://www.inaturalist.org/observations/102126653","photos":"https://inaturalist-open-data.s3.amazonaws.com/photos/170657041/medium.png"},"geometry":{"type":"Point","coordinates":[-77.54132,37.578896]}},{"type":"Feature","properties":{"id":102113168.0,"observed_on":"2021-11-28T20:16:52.000Z","latitude":39.86573,"longitude":-74.95753,"place":"Garden State Rotary Complex, Cherry Hill, NJ, US","inaturl":"https://www.inaturalist.org/observations/102113168","photos":"https://inaturalist-open-data.s3.amazonaws.com/photos/170634727/medium.jpg"},"geometry":{"type":"Point","coordinates":[-74.957535,39.865726]}},{"type":"Feature","properties":{"id":102112893.0,"observed_on":"2021-11-28T20:58:16.000Z","latitude":39.67323,"longitude":-75.74646,"place":"Kells Park, Newark, DE, US","inaturl":"https://www.inaturalist.org/observations/102112893","photos":"https://inaturalist-open-data.s3.amazonaws.com/photos/170634178/medium.jpg"},"geometry":{"type":"Point","coordinates":[-75.74646,39.673233]}},{"type":"Feature","properties":{"id":102080961.0,"observed_on":"2021-06-13T12:53:00.000Z","latitude":39.74097,"longitude":-75.14587,"place":"Mantua Township, NJ, USA","inaturl":"https://www.inaturalist.org/observations/102080961","photos":"https://inaturalist-open-data.s3.amazonaws.com/photos/170575206/medium.jpeg"},"geometry":{"type":"Point","coordinates":[-75.14587,39.740967]}},{"type":"Feature","properties":{"id":101969315.0,"observed_on":"2021-09-14T20:38:00.000Z","latitude":40.15942,"longitude":-74.01916,"place":"Spring Lake, NJ 07762, USA","inaturl":"https://www.inaturalist.org/observations/101969315","photos":"https://inaturalist-open-data.s3.amazonaws.com/photos/170362948/medium.jpg"},"geometry":{"type":"Point","coordinates":[-74.01916,40.15942]}},{"type":"Feature","properties":{"id":101949614.0,"observed_on":"2021-11-23T19:26:54.000Z","latitude":40.36453,"longitude":-75.9684,"place":"Muhlenberg, PA 19605, USA","inaturl":"https://www.inaturalist.org/observations/101949614","photos":"https://inaturalist-open-data.s3.amazonaws.com/photos/170328328/medium.jpeg"},"geometry":{"type":"Point","coordinates":[-75.9684,40.364532]}},{"type":"Feature","properties":{"id":101949593.0,"observed_on":"2021-11-23T19:25:49.000Z","latitude":40.36449,"longitude":-75.96822,"place":"Muhlenberg, PA 19605, USA","inaturl":"https://www.inaturalist.org/observations/101949593","photos":"https://inaturalist-open-data.s3.amazonaws.com/photos/170328285/medium.jpeg"},"geometry":{"type":"Point","coordinates":[-75.96822,40.364494]}},{"type":"Feature","properties":{"id":101919346.0,"observed_on":"2021-10-24T20:48:08.000Z","latitude":40.45132,"longitude":-74.22989,"place":"Furman Blvd, Keyport, NJ, US","inaturl":"https://www.inaturalist.org/observations/101919346","photos":"https://inaturalist-open-data.s3.amazonaws.com/photos/170272317/medium.jpg"},"geometry":{"type":"Point","coordinates":[-74.22989,40.451317]}},{"type":"Feature","properties":{"id":101890377.0,"observed_on":"2021-11-25T16:19:06.000Z","latitude":40.82009,"longitude":-74.77428,"place":"Dorset Rd, Long Valley, NJ, US","inaturl":"https://www.inaturalist.org/observations/101890377","photos":"https://inaturalist-open-data.s3.amazonaws.com/photos/170215385/medium.jpg"},"geometry":{"type":"Point","coordinates":[-74.77428,40.820087]}},{"type":"Feature","properties":{"id":101796713.0,"observed_on":"2021-10-13T17:39:00.000Z","latitude":39.53594,"longitude":-76.34829,"place":"Bel Air, MD 21014, USA","inaturl":"https://www.inaturalist.org/observations/101796713","photos":"https://inaturalist-open-data.s3.amazonaws.com/photos/170048069/medium.jpeg"},"geometry":{"type":"Point","coordinates":[-76.34829,39.535942]}},{"type":"Feature","properties":{"id":101777748.0,"observed_on":"2021-11-07T18:05:13.000Z","latitude":39.85305,"longitude":-76.34482,"place":"Lancaster County, US-PA, US","inaturl":"https://www.inaturalist.org/observations/101777748","photos":"https://static.inaturalist.org/photos/170010118/medium.jpg"},"geometry":{"type":"Point","coordinates":[-76.34482,39.853046]}},{"type":"Feature","properties":{"id":101748498.0,"observed_on":"2021-09-21T17:13:59.000Z","latitude":40.72977,"longitude":-74.26212,"place":"Oakland Rd, Maplewood, NJ, US","inaturl":"https://www.inaturalist.org/observations/101748498","photos":"https://inaturalist-open-data.s3.amazonaws.com/photos/169961490/medium.jpg"},"geometry":{"type":"Point","coordinates":[-74.26212,40.729767]}},{"type":"Feature","properties":{"id":101742681.0,"observed_on":"2021-11-21T18:50:13.000Z","latitude":40.72901,"longitude":-74.30338,"place":"Millburn, NJ 07041, USA","inaturl":"https://www.inaturalist.org/observations/101742681","photos":"https://inaturalist-open-data.s3.amazonaws.com/photos/169948983/medium.jpeg"},"geometry":{"type":"Point","coordinates":[-74.30338,40.72901]}},{"type":"Feature","properties":{"id":101742529.0,"observed_on":"2021-11-21T18:49:56.000Z","latitude":40.72901,"longitude":-74.30339,"place":"Millburn, NJ 07041, USA","inaturl":"https://www.inaturalist.org/observations/101742529","photos":"https://inaturalist-open-data.s3.amazonaws.com/photos/169948584/medium.jpeg"},"geometry":{"type":"Point","coordinates":[-74.30339,40.729008]}},{"type":"Feature","properties":{"id":101742420.0,"observed_on":"2021-11-21T18:49:20.000Z","latitude":40.72899,"longitude":-74.30334,"place":"Millburn, NJ 07041, USA","inaturl":"https://www.inaturalist.org/observations/101742420","photos":"https://inaturalist-open-data.s3.amazonaws.com/photos/169948332/medium.jpeg"},"geometry":{"type":"Point","coordinates":[-74.303345,40.728992]}},{"type":"Feature","properties":{"id":101742405.0,"observed_on":"2021-11-21T18:48:12.000Z","latitude":40.72892,"longitude":-74.30328,"place":"Millburn, NJ 07041, USA","inaturl":"https://www.inaturalist.org/observations/101742405","photos":"https://inaturalist-open-data.s3.amazonaws.com/photos/169948285/medium.jpeg"},"geometry":{"type":"Point","coordinates":[-74.303276,40.72892]}},{"type":"Feature","properties":{"id":101734507.0,"observed_on":"2021-09-27T14:33:13.000Z","latitude":40.62701,"longitude":-74.04092,"place":"Kings County","inaturl":"https://www.inaturalist.org/observations/101734507","photos":"https://inaturalist-open-data.s3.amazonaws.com/photos/169930711/medium.jpeg"},"geometry":{"type":"Point","coordinates":[-74.04092,40.62701]}},{"type":"Feature","properties":{"id":101704328.0,"observed_on":"2021-11-21T18:43:51.000Z","latitude":40.72829,"longitude":-74.30205,"place":"Millburn, NJ 07041, USA","inaturl":"https://www.inaturalist.org/observations/101704328","photos":"https://inaturalist-open-data.s3.amazonaws.com/photos/169871666/medium.jpeg"},"geometry":{"type":"Point","coordinates":[-74.30205,40.728287]}},{"type":"Feature","properties":{"id":101623311.0,"observed_on":"2021-09-30T14:19:00.000Z","latitude":39.44998,"longitude":-76.00857,"place":"Cecil County, MD, USA","inaturl":"https://www.inaturalist.org/observations/101623311","photos":"https://inaturalist-open-data.s3.amazonaws.com/photos/169727365/medium.jpg"},"geometry":{"type":"Point","coordinates":[-76.00857,39.44998]}},{"type":"Feature","properties":{"id":101571242.0,"observed_on":"2021-11-08T17:48:44.000Z","latitude":40.35746,"longitude":-79.74474,"place":"Ardara, PA, US","inaturl":"https://www.inaturalist.org/observations/101571242","photos":"https://inaturalist-open-data.s3.amazonaws.com/photos/169641755/medium.jpg"},"geometry":{"type":"Point","coordinates":[-79.74474,40.357464]}},{"type":"Feature","properties":{"id":101500053.0,"observed_on":"2021-11-07T03:52:55.000Z","latitude":40.20985,"longitude":-75.27937,"place":"North Wales, PA 19454, USA","inaturl":"https://www.inaturalist.org/observations/101500053","photos":"https://inaturalist-open-data.s3.amazonaws.com/photos/169521600/medium.jpeg"},"geometry":{"type":"Point","coordinates":[-75.279366,40.209854]}},{"type":"Feature","properties":{"id":101471708.0,"observed_on":"2021-11-19T17:03:43.000Z","latitude":40.81234,"longitude":-73.96365,"place":"Riverside Dr/W 122 St, New York, NY 10027, USA","inaturl":"https://www.inaturalist.org/observations/101471708","photos":"https://inaturalist-open-data.s3.amazonaws.com/photos/169474561/medium.jpeg"},"geometry":{"type":"Point","coordinates":[-73.963646,40.812344]}},{"type":"Feature","properties":{"id":101443815.0,"observed_on":"2021-11-19T03:25:34.000Z","latitude":40.63945,"longitude":-73.95823,"place":"Long Island, New York, NY, US","inaturl":"https://www.inaturalist.org/observations/101443815","photos":"https://inaturalist-open-data.s3.amazonaws.com/photos/169421294/medium.jpg"},"geometry":{"type":"Point","coordinates":[-73.95823,40.639454]}},{"type":"Feature","properties":{"id":101443308.0,"observed_on":"2021-11-18T18:46:00.000Z","latitude":40.44878,"longitude":-75.88676,"place":"Blandon, PA, USA","inaturl":"https://www.inaturalist.org/observations/101443308","photos":"https://inaturalist-open-data.s3.amazonaws.com/photos/169420335/medium.jpg"},"geometry":{"type":"Point","coordinates":[-75.88676,40.448776]}},{"type":"Feature","properties":{"id":101443307.0,"observed_on":"2021-11-18T18:46:00.000Z","latitude":40.44882,"longitude":-75.88674,"place":"Blandon, PA, USA","inaturl":"https://www.inaturalist.org/observations/101443307","photos":"https://inaturalist-open-data.s3.amazonaws.com/photos/169420328/medium.jpg"},"geometry":{"type":"Point","coordinates":[-75.88674,40.44882]}},{"type":"Feature","properties":{"id":101443306.0,"observed_on":"2021-11-18T18:45:00.000Z","latitude":40.44881,"longitude":-75.88674,"place":"Blandon, PA, USA","inaturl":"https://www.inaturalist.org/observations/101443306","photos":"https://inaturalist-open-data.s3.amazonaws.com/photos/169420315/medium.jpg"},"geometry":{"type":"Point","coordinates":[-75.88674,40.448807]}},{"type":"Feature","properties":{"id":101443305.0,"observed_on":"2021-11-18T18:45:00.000Z","latitude":40.44882,"longitude":-75.88673,"place":"Berks, Pennsylvania, United States","inaturl":"https://www.inaturalist.org/observations/101443305","photos":"https://inaturalist-open-data.s3.amazonaws.com/photos/169420321/medium.jpg"},"geometry":{"type":"Point","coordinates":[-75.88673,40.448822]}},{"type":"Feature","properties":{"id":101443303.0,"observed_on":"2021-11-18T18:45:00.000Z","latitude":40.44878,"longitude":-75.88675,"place":"Blandon, PA, USA","inaturl":"https://www.inaturalist.org/observations/101443303","photos":"https://inaturalist-open-data.s3.amazonaws.com/photos/169420307/medium.jpg"},"geometry":{"type":"Point","coordinates":[-75.88675,40.448784]}},{"type":"Feature","properties":{"id":101443301.0,"observed_on":"2021-11-18T18:39:00.000Z","latitude":40.44867,"longitude":-75.88633,"place":"Blandon, PA, USA","inaturl":"https://www.inaturalist.org/observations/101443301","photos":"https://inaturalist-open-data.s3.amazonaws.com/photos/169420264/medium.jpg"},"geometry":{"type":"Point","coordinates":[-75.88633,40.448666]}},{"type":"Feature","properties":{"id":101443300.0,"observed_on":"2021-11-18T18:17:00.000Z","latitude":40.44866,"longitude":-75.88503,"place":"Blandon, PA, USA","inaturl":"https://www.inaturalist.org/observations/101443300","photos":"https://inaturalist-open-data.s3.amazonaws.com/photos/169420259/medium.jpg"},"geometry":{"type":"Point","coordinates":[-75.885025,40.448658]}},{"type":"Feature","properties":{"id":101443299.0,"observed_on":"2021-11-18T18:15:00.000Z","latitude":40.44859,"longitude":-75.88488,"place":"Blandon, PA, USA","inaturl":"https://www.inaturalist.org/observations/101443299","photos":"https://inaturalist-open-data.s3.amazonaws.com/photos/169420256/medium.jpg"},"geometry":{"type":"Point","coordinates":[-75.88488,40.448593]}},{"type":"Feature","properties":{"id":101443298.0,"observed_on":"2021-11-18T18:09:00.000Z","latitude":40.44894,"longitude":-75.88444,"place":"Berks, Pennsylvania, United States","inaturl":"https://www.inaturalist.org/observations/101443298","photos":"https://inaturalist-open-data.s3.amazonaws.com/photos/169420236/medium.jpg"},"geometry":{"type":"Point","coordinates":[-75.88444,40.44894]}},{"type":"Feature","properties":{"id":101443297.0,"observed_on":"2021-11-18T18:09:00.000Z","latitude":40.44895,"longitude":-75.88442,"place":"Berks, Pennsylvania, United States","inaturl":"https://www.inaturalist.org/observations/101443297","photos":"https://inaturalist-open-data.s3.amazonaws.com/photos/169420221/medium.jpg"},"geometry":{"type":"Point","coordinates":[-75.88442,40.448948]}},{"type":"Feature","properties":{"id":101429433.0,"observed_on":"2021-11-18T19:46:08.000Z","latitude":40.05111,"longitude":-75.01244,"place":"Pennsylvania, US","inaturl":"https://www.inaturalist.org/observations/101429433","photos":"https://inaturalist-open-data.s3.amazonaws.com/photos/169391977/medium.jpg"},"geometry":{"type":"Point","coordinates":[-75.012436,40.05111]}},{"type":"Feature","properties":{"id":101427018.0,"observed_on":"2021-11-18T18:21:00.000Z","latitude":40.65435,"longitude":-73.99913,"place":"Greenwood Heights, Brooklyn, NY, USA","inaturl":"https://www.inaturalist.org/observations/101427018","photos":"https://inaturalist-open-data.s3.amazonaws.com/photos/169385134/medium.jpeg"},"geometry":{"type":"Point","coordinates":[-73.99913,40.654354]}},{"type":"Feature","properties":{"id":101417056.0,"observed_on":"2021-10-11T17:02:53.000Z","latitude":40.79334,"longitude":-73.92722,"place":"Randalls Island, New York, NY, USA","inaturl":"https://www.inaturalist.org/observations/101417056","photos":"https://inaturalist-open-data.s3.amazonaws.com/photos/169373679/medium.jpeg"},"geometry":{"type":"Point","coordinates":[-73.92722,40.793335]}},{"type":"Feature","properties":{"id":101405569.0,"observed_on":"2021-10-10T19:32:17.000Z","latitude":40.42905,"longitude":-79.80473,"place":"William Penn Hwy, Pittsburgh, PA, US","inaturl":"https://www.inaturalist.org/observations/101405569","photos":"https://inaturalist-open-data.s3.amazonaws.com/photos/169352202/medium.jpg"},"geometry":{"type":"Point","coordinates":[-79.804726,40.429047]}},{"type":"Feature","properties":{"id":101401583.0,"observed_on":"2021-11-10T19:42:00.000Z","latitude":40.44871,"longitude":-75.88684,"place":"Blandon, PA, USA","inaturl":"https://www.inaturalist.org/observations/101401583","photos":"https://inaturalist-open-data.s3.amazonaws.com/photos/169342149/medium.jpg"},"geometry":{"type":"Point","coordinates":[-75.88684,40.44871]}},{"type":"Feature","properties":{"id":101398484.0,"observed_on":"2021-11-10T19:33:00.000Z","latitude":40.44883,"longitude":-75.88673,"place":"Blandon, PA, USA","inaturl":"https://www.inaturalist.org/observations/101398484","photos":"https://inaturalist-open-data.s3.amazonaws.com/photos/169338583/medium.jpg"},"geometry":{"type":"Point","coordinates":[-75.886734,40.448833]}},{"type":"Feature","properties":{"id":101398480.0,"observed_on":"2021-11-10T19:32:00.000Z","latitude":40.44879,"longitude":-75.88674,"place":"Blandon, PA, USA","inaturl":"https://www.inaturalist.org/observations/101398480","photos":"https://inaturalist-open-data.s3.amazonaws.com/photos/169338570/medium.jpg"},"geometry":{"type":"Point","coordinates":[-75.88674,40.448795]}},{"type":"Feature","properties":{"id":101398478.0,"observed_on":"2021-11-10T19:31:00.000Z","latitude":40.44879,"longitude":-75.8867,"place":"Blandon, PA, USA","inaturl":"https://www.inaturalist.org/observations/101398478","photos":"https://inaturalist-open-data.s3.amazonaws.com/photos/169338554/medium.jpg"},"geometry":{"type":"Point","coordinates":[-75.886696,40.448788]}},{"type":"Feature","properties":{"id":101398474.0,"observed_on":"2021-11-10T19:26:00.000Z","latitude":40.44869,"longitude":-75.88632,"place":"Blandon, PA, USA","inaturl":"https://www.inaturalist.org/observations/101398474","photos":"https://inaturalist-open-data.s3.amazonaws.com/photos/169338366/medium.jpg"},"geometry":{"type":"Point","coordinates":[-75.88632,40.448692]}},{"type":"Feature","properties":{"id":101398473.0,"observed_on":"2021-11-10T19:24:00.000Z","latitude":40.44874,"longitude":-75.88636,"place":"Blandon, PA, USA","inaturl":"https://www.inaturalist.org/observations/101398473","photos":"https://inaturalist-open-data.s3.amazonaws.com/photos/169338355/medium.jpg"},"geometry":{"type":"Point","coordinates":[-75.88636,40.44874]}},{"type":"Feature","properties":{"id":101380573.0,"observed_on":"2021-11-10T19:02:32.000Z","latitude":40.44891,"longitude":-75.88576,"place":"Blandon, PA, USA","inaturl":"https://www.inaturalist.org/observations/101380573","photos":"https://inaturalist-open-data.s3.amazonaws.com/photos/169305161/medium.jpeg"},"geometry":{"type":"Point","coordinates":[-75.88576,40.448906]}},{"type":"Feature","properties":{"id":101279233.0,"observed_on":"2021-11-16T19:43:25.000Z","latitude":40.19976,"longitude":-75.05586,"place":"Warminster Community Park, Warminster, PA, US","inaturl":"https://www.inaturalist.org/observations/101279233","photos":"https://inaturalist-open-data.s3.amazonaws.com/photos/169126168/medium.jpg"},"geometry":{"type":"Point","coordinates":[-75.05586,40.199757]}},{"type":"Feature","properties":{"id":101253895.0,"observed_on":"2021-11-07T17:49:40.000Z","latitude":40.11503,"longitude":-74.86665,"place":"Hatfield St, Bristol, PA, US","inaturl":"https://www.inaturalist.org/observations/101253895","photos":"https://inaturalist-open-data.s3.amazonaws.com/photos/169078133/medium.jpg"},"geometry":{"type":"Point","coordinates":[-74.86665,40.115025]}},{"type":"Feature","properties":{"id":101209347.0,"observed_on":"2021-10-12T20:27:40.000Z","latitude":39.45278,"longitude":-75.74758,"place":"Middletown, DE, US","inaturl":"https://www.inaturalist.org/observations/101209347","photos":"https://inaturalist-open-data.s3.amazonaws.com/photos/168990481/medium.jpg"},"geometry":{"type":"Point","coordinates":[-75.74758,39.452778]}},{"type":"Feature","properties":{"id":101173061.0,"observed_on":"2021-11-13T16:50:24.000Z","latitude":40.5114,"longitude":-74.65725,"place":"Flemming Dr, Hillsborough, NJ, US","inaturl":"https://www.inaturalist.org/observations/101173061","photos":"https://inaturalist-open-data.s3.amazonaws.com/photos/168928162/medium.jpg"},"geometry":{"type":"Point","coordinates":[-74.65725,40.511395]}},{"type":"Feature","properties":{"id":101156963.0,"observed_on":"2021-11-14T20:37:25.000Z","latitude":40.25092,"longitude":-77.00678,"place":"Hampden Township, PA, USA","inaturl":"https://www.inaturalist.org/observations/101156963","photos":"https://inaturalist-open-data.s3.amazonaws.com/photos/168896640/medium.jpeg"},"geometry":{"type":"Point","coordinates":[-77.00678,40.250916]}},{"type":"Feature","properties":{"id":101140556.0,"observed_on":"2021-11-14T16:05:37.000Z","latitude":39.60133,"longitude":-76.64101,"place":"Monkton, MD 21111, USA","inaturl":"https://www.inaturalist.org/observations/101140556","photos":"https://inaturalist-open-data.s3.amazonaws.com/photos/168865659/medium.jpeg"},"geometry":{"type":"Point","coordinates":[-76.641014,39.601334]}},{"type":"Feature","properties":{"id":101128138.0,"observed_on":"2021-11-14T18:25:22.000Z","latitude":40.06997,"longitude":-75.2314,"place":"Houston Playground, Philadelphia, PA, US","inaturl":"https://www.inaturalist.org/observations/101128138","photos":"https://inaturalist-open-data.s3.amazonaws.com/photos/168849286/medium.jpg"},"geometry":{"type":"Point","coordinates":[-75.2314,40.069973]}},{"type":"Feature","properties":{"id":101033367.0,"observed_on":"2021-11-13T20:30:00.000Z","latitude":40.08722,"longitude":-76.20657,"place":"Leacock-Leola-Bareville, PA, USA","inaturl":"https://www.inaturalist.org/observations/101033367","photos":"https://inaturalist-open-data.s3.amazonaws.com/photos/168689189/medium.jpeg"},"geometry":{"type":"Point","coordinates":[-76.206566,40.087223]}},{"type":"Feature","properties":{"id":101021943.0,"observed_on":"2021-11-13T16:33:32.000Z","latitude":39.51845,"longitude":-76.1087,"place":"Havre De Grace","inaturl":"https://www.inaturalist.org/observations/101021943","photos":"https://inaturalist-open-data.s3.amazonaws.com/photos/168669454/medium.jpeg"},"geometry":{"type":"Point","coordinates":[-76.1087,39.518448]}},{"type":"Feature","properties":{"id":101015944.0,"observed_on":"2021-11-13T17:15:45.000Z","latitude":40.81333,"longitude":-73.96446,"place":"Morningside Heights, New York, NY, USA","inaturl":"https://www.inaturalist.org/observations/101015944","photos":"https://inaturalist-open-data.s3.amazonaws.com/photos/168659000/medium.jpeg"},"geometry":{"type":"Point","coordinates":[-73.964455,40.81333]}},{"type":"Feature","properties":{"id":101011488.0,"observed_on":"2021-11-13T16:13:32.000Z","latitude":39.60798,"longitude":-77.6707,"place":"Hagerstown, MD 21740, USA","inaturl":"https://www.inaturalist.org/observations/101011488","photos":"https://inaturalist-open-data.s3.amazonaws.com/photos/168650201/medium.jpeg"},"geometry":{"type":"Point","coordinates":[-77.6707,39.60798]}},{"type":"Feature","properties":{"id":100954221.0,"observed_on":"2021-10-02T23:34:00.000Z","latitude":40.35566,"longitude":-74.41544,"place":"1 Clark Ct, Monroe Township, NJ 08831, USA","inaturl":"https://www.inaturalist.org/observations/100954221","photos":"https://inaturalist-open-data.s3.amazonaws.com/photos/168545201/medium.jpg"},"geometry":{"type":"Point","coordinates":[-74.41544,40.355663]}},{"type":"Feature","properties":{"id":100953571.0,"observed_on":"2021-11-12T21:01:36.000Z","latitude":39.9407,"longitude":-75.18569,"place":"Washington Ave, Philadelphia, PA, US","inaturl":"https://www.inaturalist.org/observations/100953571","photos":"https://inaturalist-open-data.s3.amazonaws.com/photos/168543908/medium.jpg"},"geometry":{"type":"Point","coordinates":[-75.18569,39.940704]}},{"type":"Feature","properties":{"id":100951007.0,"observed_on":"2021-11-12T18:33:00.000Z","latitude":40.43874,"longitude":-74.46018,"place":"East Brunswick, NJ, USA","inaturl":"https://www.inaturalist.org/observations/100951007","photos":"https://inaturalist-open-data.s3.amazonaws.com/photos/168538425/medium.jpeg"},"geometry":{"type":"Point","coordinates":[-74.46018,40.438736]}},{"type":"Feature","properties":{"id":100950326.0,"observed_on":"2019-10-12T16:59:00.000Z","latitude":39.95731,"longitude":-75.19149,"place":"Powelton Village, Philadelphia, PA 19104, USA","inaturl":"https://www.inaturalist.org/observations/100950326","photos":"https://inaturalist-open-data.s3.amazonaws.com/photos/168521910/medium.jpg"},"geometry":{"type":"Point","coordinates":[-75.19149,39.95731]}},{"type":"Feature","properties":{"id":100942410.0,"observed_on":"2021-11-12T16:25:51.000Z","latitude":37.3592,"longitude":-79.18942,"place":"Wards Ferry Rd. Stop 1, Lynchburg, VA 24502, USA","inaturl":"https://www.inaturalist.org/observations/100942410","photos":"https://inaturalist-open-data.s3.amazonaws.com/photos/168528979/medium.jpeg"},"geometry":{"type":"Point","coordinates":[-79.18942,37.359203]}},{"type":"Feature","properties":{"id":100941957.0,"observed_on":"2021-11-12T18:36:11.000Z","latitude":39.80419,"longitude":-75.92622,"place":"Lincoln University, Lincoln University, PA, US","inaturl":"https://www.inaturalist.org/observations/100941957","photos":"https://inaturalist-open-data.s3.amazonaws.com/photos/168528067/medium.jpg"},"geometry":{"type":"Point","coordinates":[-75.92622,39.80419]}},{"type":"Feature","properties":{"id":100893161.0,"observed_on":"2021-07-26T01:30:00.000Z","latitude":40.74835,"longitude":-74.32322,"place":"Short Hills, Millburn, NJ, USA","inaturl":"https://www.inaturalist.org/observations/100893161","photos":"https://inaturalist-open-data.s3.amazonaws.com/photos/168442283/medium.jpeg"},"geometry":{"type":"Point","coordinates":[-74.32322,40.74835]}},{"type":"Feature","properties":{"id":100888133.0,"observed_on":"2021-10-30T19:48:00.000Z","latitude":40.55326,"longitude":-74.63419,"place":"Duke Farms, Hillsborough Township, NJ 08844, USA","inaturl":"https://www.inaturalist.org/observations/100888133","photos":"https://inaturalist-open-data.s3.amazonaws.com/photos/168431160/medium.jpg"},"geometry":{"type":"Point","coordinates":[-74.634186,40.553257]}},{"type":"Feature","properties":{"id":100888131.0,"observed_on":"2021-10-30T19:46:00.000Z","latitude":40.55326,"longitude":-74.63419,"place":"Duke Farms, Hillsborough Township, NJ 08844, USA","inaturl":"https://www.inaturalist.org/observations/100888131","photos":"https://inaturalist-open-data.s3.amazonaws.com/photos/168431149/medium.jpg"},"geometry":{"type":"Point","coordinates":[-74.634186,40.553257]}},{"type":"Feature","properties":{"id":100873355.0,"observed_on":"2021-11-10T19:31:00.000Z","latitude":40.5787,"longitude":-74.07626,"place":"Ocean breeze, Staten Island, NY 10305, USA","inaturl":"https://www.inaturalist.org/observations/100873355","photos":"https://inaturalist-open-data.s3.amazonaws.com/photos/168371627/medium.jpeg"},"geometry":{"type":"Point","coordinates":[-74.07626,40.5787]}},{"type":"Feature","properties":{"id":100866246.0,"observed_on":"2021-11-09T21:17:00.000Z","latitude":40.449,"longitude":-75.884,"place":"Blandon, PA, USA","inaturl":"https://www.inaturalist.org/observations/100866246","photos":"https://inaturalist-open-data.s3.amazonaws.com/photos/168390651/medium.jpg"},"geometry":{"type":"Point","coordinates":[-75.884,40.449]}},{"type":"Feature","properties":{"id":100866244.0,"observed_on":"2021-11-09T21:14:00.000Z","latitude":40.4491,"longitude":-75.88398,"place":"Blandon, PA, USA","inaturl":"https://www.inaturalist.org/observations/100866244","photos":"https://inaturalist-open-data.s3.amazonaws.com/photos/168390628/medium.jpg"},"geometry":{"type":"Point","coordinates":[-75.88398,40.4491]}},{"type":"Feature","properties":{"id":100866243.0,"observed_on":"2021-11-09T21:14:00.000Z","latitude":40.44909,"longitude":-75.88397,"place":"Blandon, PA, USA","inaturl":"https://www.inaturalist.org/observations/100866243","photos":"https://inaturalist-open-data.s3.amazonaws.com/photos/168390643/medium.jpg"},"geometry":{"type":"Point","coordinates":[-75.883965,40.449093]}},{"type":"Feature","properties":{"id":100860995.0,"observed_on":"2021-11-11T16:47:40.000Z","latitude":40.81233,"longitude":-73.96427,"place":"New York County, US-NY, US","inaturl":"https://www.inaturalist.org/observations/100860995","photos":"https://inaturalist-open-data.s3.amazonaws.com/photos/168382521/medium.jpeg"},"geometry":{"type":"Point","coordinates":[-73.96427,40.81233]}},{"type":"Feature","properties":{"id":100858086.0,"observed_on":"2021-11-11T16:01:57.000Z","latitude":40.81223,"longitude":-73.96418,"place":"Riverside Dr/W 122 St, New York, NY 10027, USA","inaturl":"https://www.inaturalist.org/observations/100858086","photos":"https://inaturalist-open-data.s3.amazonaws.com/photos/168377331/medium.jpeg"},"geometry":{"type":"Point","coordinates":[-73.96418,40.81223]}},{"type":"Feature","properties":{"id":100848563.0,"observed_on":"2021-10-02T18:17:00.000Z","latitude":40.55326,"longitude":-74.63419,"place":"Duke Farms, Hillsborough Township, NJ 08844, USA","inaturl":"https://www.inaturalist.org/observations/100848563","photos":"https://inaturalist-open-data.s3.amazonaws.com/photos/168358015/medium.jpg"},"geometry":{"type":"Point","coordinates":[-74.634186,40.553257]}},{"type":"Feature","properties":{"id":100848557.0,"observed_on":"2021-09-30T19:13:00.000Z","latitude":40.70757,"longitude":-74.46606,"place":"New Vernon, NJ 07976, USA","inaturl":"https://www.inaturalist.org/observations/100848557","photos":"https://inaturalist-open-data.s3.amazonaws.com/photos/168357893/medium.jpg"},"geometry":{"type":"Point","coordinates":[-74.46606,40.707565]}},{"type":"Feature","properties":{"id":100833395.0,"observed_on":"2021-11-09T20:15:00.000Z","latitude":40.45085,"longitude":-75.87767,"place":"Blandon, PA, USA","inaturl":"https://www.inaturalist.org/observations/100833395","photos":"https://inaturalist-open-data.s3.amazonaws.com/photos/168333843/medium.jpg"},"geometry":{"type":"Point","coordinates":[-75.87767,40.450848]}},{"type":"Feature","properties":{"id":100819172.0,"observed_on":"2021-11-10T19:56:48.000Z","latitude":40.47883,"longitude":-74.43649,"place":"Rutgers University - New Brunswick, New Brunswick, NJ, US","inaturl":"https://www.inaturalist.org/observations/100819172","photos":"https://inaturalist-open-data.s3.amazonaws.com/photos/168309141/medium.jpg"},"geometry":{"type":"Point","coordinates":[-74.43649,40.47883]}},{"type":"Feature","properties":{"id":100809387.0,"observed_on":"2021-09-24T19:07:00.000Z","latitude":40.59396,"longitude":-74.6049,"place":"Bridgewater Township, NJ, USA","inaturl":"https://www.inaturalist.org/observations/100809387","photos":"https://inaturalist-open-data.s3.amazonaws.com/photos/168288134/medium.jpg"},"geometry":{"type":"Point","coordinates":[-74.604904,40.593964]}},{"type":"Feature","properties":{"id":100805213.0,"observed_on":"2021-11-01T21:52:00.000Z","latitude":40.15169,"longitude":-76.31306,"place":"Lititz, PA 17543, USA","inaturl":"https://www.inaturalist.org/observations/100805213","photos":"https://inaturalist-open-data.s3.amazonaws.com/photos/168283274/medium.jpeg"},"geometry":{"type":"Point","coordinates":[-76.313065,40.151688]}},{"type":"Feature","properties":{"id":100798823.0,"observed_on":"2021-11-10T21:28:02.000Z","latitude":39.76117,"longitude":-75.57471,"place":"Highlands, Wilmington, DE 19806, USA","inaturl":"https://www.inaturalist.org/observations/100798823","photos":"https://inaturalist-open-data.s3.amazonaws.com/photos/168271827/medium.jpeg"},"geometry":{"type":"Point","coordinates":[-75.57471,39.761166]}},{"type":"Feature","properties":{"id":100789442.0,"observed_on":"2021-11-10T01:19:25.000Z","latitude":39.49914,"longitude":-74.53122,"place":"Stockton University, Egg Harbor City, NJ, US","inaturl":"https://www.inaturalist.org/observations/100789442","photos":"https://inaturalist-open-data.s3.amazonaws.com/photos/168253363/medium.jpg"},"geometry":{"type":"Point","coordinates":[-74.53122,39.49914]}},{"type":"Feature","properties":{"id":100781237.0,"observed_on":"2021-10-05T15:44:00.000Z","latitude":40.38785,"longitude":-79.86477,"place":"Kennywood Park, West Mifflin, PA 15122, USA","inaturl":"https://www.inaturalist.org/observations/100781237","photos":"https://inaturalist-open-data.s3.amazonaws.com/photos/168236559/medium.jpeg"},"geometry":{"type":"Point","coordinates":[-79.86477,40.387848]}},{"type":"Feature","properties":{"id":100781035.0,"observed_on":"2021-11-10T16:56:56.000Z","latitude":41.42333,"longitude":-70.61881,"place":"Martha's Vineyard, Vineyard Haven, MA, US","inaturl":"https://www.inaturalist.org/observations/100781035","photos":"https://inaturalist-open-data.s3.amazonaws.com/photos/168237916/medium.jpg"},"geometry":{"type":"Point","coordinates":[-70.61881,41.423332]}},{"type":"Feature","properties":{"id":100769633.0,"observed_on":"2021-11-10T13:52:48.000Z","latitude":39.98507,"longitude":-74.80072,"place":"Lumberton, NJ 08048, USA","inaturl":"https://www.inaturalist.org/observations/100769633","photos":"https://inaturalist-open-data.s3.amazonaws.com/photos/168218069/medium.jpeg"},"geometry":{"type":"Point","coordinates":[-74.80072,39.985073]}},{"type":"Feature","properties":{"id":100763991.0,"observed_on":"2021-10-09T14:51:00.000Z","latitude":39.982,"longitude":-74.741,"place":"Eastampton Township, NJ 08060, USA","inaturl":"https://www.inaturalist.org/observations/100763991","photos":"https://inaturalist-open-data.s3.amazonaws.com/photos/168162168/medium.jpeg"},"geometry":{"type":"Point","coordinates":[-74.741,39.982]}},{"type":"Feature","properties":{"id":100745262.0,"observed_on":"2021-11-10T03:57:13.000Z","latitude":40.77575,"longitude":-74.43113,"place":"Fairleigh Dickinson University - Florham Campus, Florham Park, NJ, US","inaturl":"https://www.inaturalist.org/observations/100745262","photos":"https://inaturalist-open-data.s3.amazonaws.com/photos/168174936/medium.jpg"},"geometry":{"type":"Point","coordinates":[-74.43113,40.77575]}},{"type":"Feature","properties":{"id":100707416.0,"observed_on":"2021-11-09T18:52:55.000Z","latitude":39.31932,"longitude":-76.61418,"place":"Old Goucher, Baltimore, MD 21218, USA","inaturl":"https://www.inaturalist.org/observations/100707416","photos":"https://inaturalist-open-data.s3.amazonaws.com/photos/168108090/medium.jpeg"},"geometry":{"type":"Point","coordinates":[-76.61418,39.31932]}},{"type":"Feature","properties":{"id":100683695.0,"observed_on":"2021-11-09T14:16:11.000Z","latitude":40.00839,"longitude":-76.30434,"place":"Lancaster Township, PA, USA","inaturl":"https://www.inaturalist.org/observations/100683695","photos":"https://inaturalist-open-data.s3.amazonaws.com/photos/168074361/medium.jpeg"},"geometry":{"type":"Point","coordinates":[-76.30434,40.008392]}},{"type":"Feature","properties":{"id":100639742.0,"observed_on":"2021-08-05T16:54:00.000Z","latitude":40.02254,"longitude":-75.68182,"place":"Chester County, PA, USA","inaturl":"https://www.inaturalist.org/observations/100639742","photos":"https://inaturalist-open-data.s3.amazonaws.com/photos/167963747/medium.jpg"},"geometry":{"type":"Point","coordinates":[-75.681816,40.02254]}},{"type":"Feature","properties":{"id":100631953.0,"observed_on":"2021-11-06T15:18:33.000Z","latitude":40.97474,"longitude":-74.73885,"place":"Main St, Andover, NJ, US","inaturl":"https://www.inaturalist.org/observations/100631953","photos":"https://inaturalist-open-data.s3.amazonaws.com/photos/168070825/medium.jpg"},"geometry":{"type":"Point","coordinates":[-74.738846,40.974735]}},{"type":"Feature","properties":{"id":100631912.0,"observed_on":"2021-11-06T15:39:08.000Z","latitude":40.94706,"longitude":-74.73714,"place":"Allamuchy Mountain State Park, Byram Township, NJ, US","inaturl":"https://www.inaturalist.org/observations/100631912","photos":"https://inaturalist-open-data.s3.amazonaws.com/photos/167984366/medium.jpg"},"geometry":{"type":"Point","coordinates":[-74.737144,40.947063]}},{"type":"Feature","properties":{"id":100631885.0,"observed_on":"2021-11-06T15:42:03.000Z","latitude":40.94629,"longitude":-74.73714,"place":"Allamuchy Mountain State Park, Byram Township, NJ, US","inaturl":"https://www.inaturalist.org/observations/100631885","photos":"https://inaturalist-open-data.s3.amazonaws.com/photos/167984311/medium.jpg"},"geometry":{"type":"Point","coordinates":[-74.737144,40.94629]}},{"type":"Feature","properties":{"id":100631790.0,"observed_on":"2021-11-06T15:43:02.000Z","latitude":40.94616,"longitude":-74.73715,"place":"Allamuchy Mountain State Park, Byram Township, NJ, US","inaturl":"https://www.inaturalist.org/observations/100631790","photos":"https://inaturalist-open-data.s3.amazonaws.com/photos/167984123/medium.jpg"},"geometry":{"type":"Point","coordinates":[-74.73715,40.946156]}},{"type":"Feature","properties":{"id":100631750.0,"observed_on":"2021-11-06T15:47:56.000Z","latitude":40.94339,"longitude":-74.73704,"place":"Allamuchy Mountain State Park, Byram Township, NJ, US","inaturl":"https://www.inaturalist.org/observations/100631750","photos":"https://inaturalist-open-data.s3.amazonaws.com/photos/167984024/medium.jpg"},"geometry":{"type":"Point","coordinates":[-74.73704,40.943394]}},{"type":"Feature","properties":{"id":100631146.0,"observed_on":"2021-11-06T15:47:58.000Z","latitude":40.9434,"longitude":-74.73706,"place":"Allamuchy Mountain State Park, Byram Township, NJ, US","inaturl":"https://www.inaturalist.org/observations/100631146","photos":"https://inaturalist-open-data.s3.amazonaws.com/photos/167982661/medium.jpg"},"geometry":{"type":"Point","coordinates":[-74.73706,40.9434]}},{"type":"Feature","properties":{"id":100627178.0,"observed_on":"2021-11-07T20:18:00.000Z","latitude":40.53976,"longitude":-74.36836,"place":"Metuchen, NJ 08840, USA","inaturl":"https://www.inaturalist.org/observations/100627178","photos":"https://inaturalist-open-data.s3.amazonaws.com/photos/167943213/medium.jpeg"},"geometry":{"type":"Point","coordinates":[-74.36836,40.539764]}},{"type":"Feature","properties":{"id":100617773.0,"observed_on":"2021-11-06T15:53:19.000Z","latitude":40.94188,"longitude":-74.73742,"place":"Allamuchy Mountain State Park, Byram Township, NJ, US","inaturl":"https://www.inaturalist.org/observations/100617773","photos":"https://inaturalist-open-data.s3.amazonaws.com/photos/167983869/medium.jpg"},"geometry":{"type":"Point","coordinates":[-74.73742,40.94188]}},{"type":"Feature","properties":{"id":100617719.0,"observed_on":"2021-11-06T15:53:19.000Z","latitude":40.94188,"longitude":-74.73742,"place":"Allamuchy Mountain State Park, Byram Township, NJ, US","inaturl":"https://www.inaturalist.org/observations/100617719","photos":"https://inaturalist-open-data.s3.amazonaws.com/photos/167957816/medium.jpg"},"geometry":{"type":"Point","coordinates":[-74.73742,40.94188]}},{"type":"Feature","properties":{"id":100617709.0,"observed_on":"2021-11-06T15:51:37.000Z","latitude":40.9417,"longitude":-74.73766,"place":"Allamuchy Mountain State Park, Byram Township, NJ, US","inaturl":"https://www.inaturalist.org/observations/100617709","photos":"https://inaturalist-open-data.s3.amazonaws.com/photos/167957778/medium.jpg"},"geometry":{"type":"Point","coordinates":[-74.73766,40.941704]}},{"type":"Feature","properties":{"id":100611702.0,"observed_on":"2021-11-06T15:53:19.000Z","latitude":40.94188,"longitude":-74.73742,"place":"Allamuchy Mountain State Park, Byram Township, NJ, US","inaturl":"https://www.inaturalist.org/observations/100611702","photos":"https://inaturalist-open-data.s3.amazonaws.com/photos/167946910/medium.jpg"},"geometry":{"type":"Point","coordinates":[-74.73742,40.94188]}},{"type":"Feature","properties":{"id":100611661.0,"observed_on":"2021-11-08T15:40:16.000Z","latitude":40.81276,"longitude":-74.73089,"place":"Columbia Trail, Long Valley, NJ, US","inaturl":"https://www.inaturalist.org/observations/100611661","photos":"https://inaturalist-open-data.s3.amazonaws.com/photos/167946818/medium.jpg"},"geometry":{"type":"Point","coordinates":[-74.73089,40.812756]}},{"type":"Feature","properties":{"id":100611590.0,"observed_on":"2021-11-06T15:54:11.000Z","latitude":40.94228,"longitude":-74.73714,"place":"Allamuchy Mountain State Park, Byram Township, NJ, US","inaturl":"https://www.inaturalist.org/observations/100611590","photos":"https://inaturalist-open-data.s3.amazonaws.com/photos/167946688/medium.jpg"},"geometry":{"type":"Point","coordinates":[-74.73714,40.942284]}},{"type":"Feature","properties":{"id":100604181.0,"observed_on":"2021-10-28T15:13:18.000Z","latitude":41.12777,"longitude":-73.30718,"place":"Greens Farms Rd, Westport, CT, US","inaturl":"https://www.inaturalist.org/observations/100604181","photos":"https://inaturalist-open-data.s3.amazonaws.com/photos/167932931/medium.jpg"},"geometry":{"type":"Point","coordinates":[-73.307175,41.127773]}},{"type":"Feature","properties":{"id":100585536.0,"observed_on":"2021-11-06T16:00:42.000Z","latitude":40.94627,"longitude":-74.73714,"place":"Allamuchy Mountain State Park, Byram Township, NJ, US","inaturl":"https://www.inaturalist.org/observations/100585536","photos":"https://inaturalist-open-data.s3.amazonaws.com/photos/167946723/medium.jpg"},"geometry":{"type":"Point","coordinates":[-74.73714,40.946274]}},{"type":"Feature","properties":{"id":100585497.0,"observed_on":"2021-11-06T19:27:13.000Z","latitude":40.81365,"longitude":-74.72957,"place":"Columbia Trail, Long Valley, NJ, US","inaturl":"https://www.inaturalist.org/observations/100585497","photos":"https://inaturalist-open-data.s3.amazonaws.com/photos/167904259/medium.jpg"},"geometry":{"type":"Point","coordinates":[-74.72957,40.813652]}},{"type":"Feature","properties":{"id":100585447.0,"observed_on":"2021-11-06T19:42:43.000Z","latitude":40.80891,"longitude":-74.73647,"place":"N Four Bridges Rd, Long Valley, NJ, US","inaturl":"https://www.inaturalist.org/observations/100585447","photos":"https://inaturalist-open-data.s3.amazonaws.com/photos/167904250/medium.jpg"},"geometry":{"type":"Point","coordinates":[-74.736465,40.80891]}},{"type":"Feature","properties":{"id":100585441.0,"observed_on":"2021-11-06T19:42:47.000Z","latitude":40.80882,"longitude":-74.7363,"place":"Columbia Trail, Long Valley, NJ, US","inaturl":"https://www.inaturalist.org/observations/100585441","photos":"https://inaturalist-open-data.s3.amazonaws.com/photos/167904089/medium.jpg"},"geometry":{"type":"Point","coordinates":[-74.7363,40.808823]}},{"type":"Feature","properties":{"id":100585421.0,"observed_on":"2021-11-06T19:44:14.000Z","latitude":40.80857,"longitude":-74.73665,"place":"N Four Bridges Rd, Long Valley, NJ, US","inaturl":"https://www.inaturalist.org/observations/100585421","photos":"https://inaturalist-open-data.s3.amazonaws.com/photos/167904027/medium.jpg"},"geometry":{"type":"Point","coordinates":[-74.73665,40.808567]}},{"type":"Feature","properties":{"id":100559040.0,"observed_on":"2021-09-17T19:30:19.000Z","latitude":40.44014,"longitude":-80.00427,"place":"Ppg Pl, Pittsburgh, PA, US","inaturl":"https://www.inaturalist.org/observations/100559040","photos":"https://inaturalist-open-data.s3.amazonaws.com/photos/167853879/medium.jpg"},"geometry":{"type":"Point","coordinates":[-80.00427,40.44014]}},{"type":"Feature","properties":{"id":96404078.0,"observed_on":"2021-09-27T20:35:54.000Z","latitude":40.97917,"longitude":-74.83872,"place":"Newton, NJ, US","inaturl":"https://www.inaturalist.org/observations/96404078","photos":"https://inaturalist-open-data.s3.amazonaws.com/photos/160153937/medium.jpg"},"geometry":{"type":"Point","coordinates":[-74.83872,40.979168]}},{"type":"Feature","properties":{"id":100550726.0,"observed_on":"2021-11-06T15:23:13.000Z","latitude":39.87538,"longitude":-75.67028,"place":"Longwood Gardens, Kennett Square, PA, US","inaturl":"https://www.inaturalist.org/observations/100550726","photos":"https://inaturalist-open-data.s3.amazonaws.com/photos/167839495/medium.jpg"},"geometry":{"type":"Point","coordinates":[-75.67028,39.875378]}},{"type":"Feature","properties":{"id":100529887.0,"observed_on":"2021-11-07T20:46:05.000Z","latitude":39.64674,"longitude":-76.16488,"place":"Havre De Grace, MD, US","inaturl":"https://www.inaturalist.org/observations/100529887","photos":"https://inaturalist-open-data.s3.amazonaws.com/photos/167807524/medium.jpg"},"geometry":{"type":"Point","coordinates":[-76.16488,39.64674]}},{"type":"Feature","properties":{"id":100445081.0,"observed_on":"2021-11-06T15:28:12.000Z","latitude":40.92038,"longitude":-73.80127,"place":"Ormonde Pl, New Rochelle, NY, US","inaturl":"https://www.inaturalist.org/observations/100445081","photos":"https://inaturalist-open-data.s3.amazonaws.com/photos/167645921/medium.jpg"},"geometry":{"type":"Point","coordinates":[-73.80127,40.920376]}},{"type":"Feature","properties":{"id":100440775.0,"observed_on":"2021-11-06T14:00:00.000Z","latitude":40.65301,"longitude":-74.02113,"place":"Sunset Park, Brooklyn, NY, USA","inaturl":"https://www.inaturalist.org/observations/100440775","photos":"https://inaturalist-open-data.s3.amazonaws.com/photos/167636983/medium.jpeg"},"geometry":{"type":"Point","coordinates":[-74.021126,40.65301]}},{"type":"Feature","properties":{"id":100437764.0,"observed_on":"2021-11-06T22:02:00.000Z","latitude":43.27088,"longitude":-72.44968,"place":"101 Perley Gordon Rd, Springfield, VT 05156, USA","inaturl":"https://www.inaturalist.org/observations/100437764","photos":"https://inaturalist-open-data.s3.amazonaws.com/photos/167631445/medium.jpeg"},"geometry":{"type":"Point","coordinates":[-72.449684,43.270878]}},{"type":"Feature","properties":{"id":100432675.0,"observed_on":"2021-11-06T20:27:08.000Z","latitude":40.12314,"longitude":-75.44197,"place":"Audubon Wildlife Sanctuary, Norristown, PA, US","inaturl":"https://www.inaturalist.org/observations/100432675","photos":"https://inaturalist-open-data.s3.amazonaws.com/photos/167621894/medium.jpg"},"geometry":{"type":"Point","coordinates":[-75.44197,40.12314]}},{"type":"Feature","properties":{"id":100420032.0,"observed_on":"2021-11-06T18:06:00.000Z","latitude":40.47294,"longitude":-74.42221,"place":"North Brunswick Township, NJ, USA","inaturl":"https://www.inaturalist.org/observations/100420032","photos":"https://inaturalist-open-data.s3.amazonaws.com/photos/167599367/medium.jpeg"},"geometry":{"type":"Point","coordinates":[-74.42221,40.472935]}},{"type":"Feature","properties":{"id":100419452.0,"observed_on":"2021-11-04T19:06:39.000Z","latitude":40.23731,"longitude":-74.71732,"place":"Fairgrounds Rd, Hamilton, NJ, US","inaturl":"https://www.inaturalist.org/observations/100419452","photos":"https://inaturalist-open-data.s3.amazonaws.com/photos/171950500/medium.jpg"},"geometry":{"type":"Point","coordinates":[-74.717316,40.237305]}},{"type":"Feature","properties":{"id":100412734.0,"observed_on":"2021-11-06T17:28:05.000Z","latitude":39.57361,"longitude":-75.58081,"place":"Middletown, DE 19709, USA","inaturl":"https://www.inaturalist.org/observations/100412734","photos":"https://inaturalist-open-data.s3.amazonaws.com/photos/167587475/medium.jpeg"},"geometry":{"type":"Point","coordinates":[-75.58081,39.573605]}},{"type":"Feature","properties":{"id":100412337.0,"observed_on":"2021-11-06T17:24:35.000Z","latitude":39.57351,"longitude":-75.58098,"place":"Middletown, DE 19709, USA","inaturl":"https://www.inaturalist.org/observations/100412337","photos":"https://inaturalist-open-data.s3.amazonaws.com/photos/167586748/medium.jpeg"},"geometry":{"type":"Point","coordinates":[-75.58098,39.57351]}},{"type":"Feature","properties":{"id":100394725.0,"observed_on":"2021-11-04T19:27:48.000Z","latitude":40.43712,"longitude":-79.93725,"place":"Bob O'Connor Golf Course at Schenley Park, Pittsburgh, PA, US","inaturl":"https://www.inaturalist.org/observations/100394725","photos":"https://inaturalist-open-data.s3.amazonaws.com/photos/167553575/medium.jpg"},"geometry":{"type":"Point","coordinates":[-79.93725,40.43712]}},{"type":"Feature","properties":{"id":100366960.0,"observed_on":"2021-11-05T20:45:41.000Z","latitude":40.3443,"longitude":-74.65673,"place":"Princeton University, Princeton, NJ, US","inaturl":"https://www.inaturalist.org/observations/100366960","photos":"https://inaturalist-open-data.s3.amazonaws.com/photos/167903946/medium.jpg"},"geometry":{"type":"Point","coordinates":[-74.65673,40.344296]}},{"type":"Feature","properties":{"id":100366921.0,"observed_on":"2021-11-05T21:03:25.000Z","latitude":40.34971,"longitude":-74.64756,"place":"Fitzrandolph Rd, Princeton, NJ, US","inaturl":"https://www.inaturalist.org/observations/100366921","photos":"https://inaturalist-open-data.s3.amazonaws.com/photos/167503569/medium.jpg"},"geometry":{"type":"Point","coordinates":[-74.64756,40.349712]}},{"type":"Feature","properties":{"id":100365560.0,"observed_on":"2021-11-04T21:44:00.000Z","latitude":40.44433,"longitude":-75.85828,"place":"Blandon, PA, USA","inaturl":"https://www.inaturalist.org/observations/100365560","photos":"https://inaturalist-open-data.s3.amazonaws.com/photos/167497993/medium.jpg"},"geometry":{"type":"Point","coordinates":[-75.85828,40.444332]}},{"type":"Feature","properties":{"id":100365558.0,"observed_on":"2021-11-04T21:44:00.000Z","latitude":40.44433,"longitude":-75.85828,"place":"Blandon, PA, USA","inaturl":"https://www.inaturalist.org/observations/100365558","photos":"https://inaturalist-open-data.s3.amazonaws.com/photos/167497985/medium.jpg"},"geometry":{"type":"Point","coordinates":[-75.85828,40.444332]}},{"type":"Feature","properties":{"id":100365555.0,"observed_on":"2021-11-04T21:42:00.000Z","latitude":40.44432,"longitude":-75.85828,"place":"Blandon, PA, USA","inaturl":"https://www.inaturalist.org/observations/100365555","photos":"https://inaturalist-open-data.s3.amazonaws.com/photos/167497969/medium.jpg"},"geometry":{"type":"Point","coordinates":[-75.85828,40.44432]}},{"type":"Feature","properties":{"id":100365554.0,"observed_on":"2021-11-04T21:41:00.000Z","latitude":40.44432,"longitude":-75.8583,"place":"Blandon, PA, USA","inaturl":"https://www.inaturalist.org/observations/100365554","photos":"https://inaturalist-open-data.s3.amazonaws.com/photos/167497952/medium.jpg"},"geometry":{"type":"Point","coordinates":[-75.8583,40.44432]}},{"type":"Feature","properties":{"id":100365552.0,"observed_on":"2021-11-04T21:41:00.000Z","latitude":40.44437,"longitude":-75.85829,"place":"Blandon, PA, USA","inaturl":"https://www.inaturalist.org/observations/100365552","photos":"https://inaturalist-open-data.s3.amazonaws.com/photos/167497747/medium.jpg"},"geometry":{"type":"Point","coordinates":[-75.85829,40.444374]}},{"type":"Feature","properties":{"id":100365548.0,"observed_on":"2021-11-04T21:40:00.000Z","latitude":40.44439,"longitude":-75.85828,"place":"Blandon, PA, USA","inaturl":"https://www.inaturalist.org/observations/100365548","photos":"https://inaturalist-open-data.s3.amazonaws.com/photos/167497729/medium.jpg"},"geometry":{"type":"Point","coordinates":[-75.858284,40.44439]}},{"type":"Feature","properties":{"id":100365547.0,"observed_on":"2021-11-04T21:36:00.000Z","latitude":40.44495,"longitude":-75.85838,"place":"Berks, Pennsylvania, United States","inaturl":"https://www.inaturalist.org/observations/100365547","photos":"https://inaturalist-open-data.s3.amazonaws.com/photos/167497710/medium.jpg"},"geometry":{"type":"Point","coordinates":[-75.85838,40.444946]}},{"type":"Feature","properties":{"id":100365507.0,"observed_on":"2021-11-05T17:42:56.000Z","latitude":39.90881,"longitude":-75.35273,"place":"Swarthmore College, Swarthmore, PA, US","inaturl":"https://www.inaturalist.org/observations/100365507","photos":"https://inaturalist-open-data.s3.amazonaws.com/photos/167501171/medium.jpg"},"geometry":{"type":"Point","coordinates":[-75.35273,39.908813]}},{"type":"Feature","properties":{"id":100363348.0,"observed_on":"2021-11-04T21:34:00.000Z","latitude":40.44484,"longitude":-75.85828,"place":"Blandon, PA, USA","inaturl":"https://www.inaturalist.org/observations/100363348","photos":"https://inaturalist-open-data.s3.amazonaws.com/photos/167497052/medium.jpg"},"geometry":{"type":"Point","coordinates":[-75.85828,40.44484]}},{"type":"Feature","properties":{"id":100363345.0,"observed_on":"2021-11-04T21:34:00.000Z","latitude":40.44484,"longitude":-75.85829,"place":"Berks, Pennsylvania, United States","inaturl":"https://www.inaturalist.org/observations/100363345","photos":"https://inaturalist-open-data.s3.amazonaws.com/photos/167496710/medium.jpg"},"geometry":{"type":"Point","coordinates":[-75.85829,40.444836]}},{"type":"Feature","properties":{"id":100363344.0,"observed_on":"2021-11-04T21:34:00.000Z","latitude":40.44485,"longitude":-75.85829,"place":"Blandon, PA, USA","inaturl":"https://www.inaturalist.org/observations/100363344","photos":"https://inaturalist-open-data.s3.amazonaws.com/photos/167496700/medium.jpg"},"geometry":{"type":"Point","coordinates":[-75.85829,40.444847]}},{"type":"Feature","properties":{"id":100363343.0,"observed_on":"2021-11-04T21:31:00.000Z","latitude":40.44431,"longitude":-75.8577,"place":"Blandon, PA, USA","inaturl":"https://www.inaturalist.org/observations/100363343","photos":"https://inaturalist-open-data.s3.amazonaws.com/photos/167496678/medium.jpg"},"geometry":{"type":"Point","coordinates":[-75.857704,40.444313]}},{"type":"Feature","properties":{"id":100363324.0,"observed_on":"2021-11-04T18:06:00.000Z","latitude":40.44535,"longitude":-75.62663,"place":"Berks County, PA, USA","inaturl":"https://www.inaturalist.org/observations/100363324","photos":"https://inaturalist-open-data.s3.amazonaws.com/photos/167495290/medium.jpg"},"geometry":{"type":"Point","coordinates":[-75.62663,40.445347]}},{"type":"Feature","properties":{"id":100363321.0,"observed_on":"2021-11-04T18:00:00.000Z","latitude":40.44532,"longitude":-75.62673,"place":"Berks County, PA, USA","inaturl":"https://www.inaturalist.org/observations/100363321","photos":"https://inaturalist-open-data.s3.amazonaws.com/photos/167495282/medium.jpg"},"geometry":{"type":"Point","coordinates":[-75.62673,40.445324]}},{"type":"Feature","properties":{"id":100361557.0,"observed_on":"2021-11-05T14:47:21.000Z","latitude":40.43573,"longitude":-79.90469,"place":"Frick Park, Pittsburgh, PA, US","inaturl":"https://www.inaturalist.org/observations/100361557","photos":"https://inaturalist-open-data.s3.amazonaws.com/photos/167497863/medium.jpg"},"geometry":{"type":"Point","coordinates":[-79.904686,40.435726]}},{"type":"Feature","properties":{"id":100358208.0,"observed_on":"2021-10-28T21:47:00.000Z","latitude":40.46368,"longitude":-75.90005,"place":"Berks County, PA, USA","inaturl":"https://www.inaturalist.org/observations/100358208","photos":"https://inaturalist-open-data.s3.amazonaws.com/photos/167487656/medium.jpg"},"geometry":{"type":"Point","coordinates":[-75.90005,40.463684]}},{"type":"Feature","properties":{"id":100358205.0,"observed_on":"2021-10-28T21:45:00.000Z","latitude":40.46372,"longitude":-75.90009,"place":"Berks County, PA, USA","inaturl":"https://www.inaturalist.org/observations/100358205","photos":"https://inaturalist-open-data.s3.amazonaws.com/photos/167487630/medium.jpg"},"geometry":{"type":"Point","coordinates":[-75.90009,40.463715]}},{"type":"Feature","properties":{"id":100358201.0,"observed_on":"2021-10-28T21:44:00.000Z","latitude":40.46378,"longitude":-75.90014,"place":"Berks County, PA, USA","inaturl":"https://www.inaturalist.org/observations/100358201","photos":"https://inaturalist-open-data.s3.amazonaws.com/photos/167487374/medium.jpg"},"geometry":{"type":"Point","coordinates":[-75.90014,40.463776]}},{"type":"Feature","properties":{"id":100358196.0,"observed_on":"2021-10-28T21:39:00.000Z","latitude":40.46413,"longitude":-75.90098,"place":"Berks, Pennsylvania, United States","inaturl":"https://www.inaturalist.org/observations/100358196","photos":"https://inaturalist-open-data.s3.amazonaws.com/photos/167487322/medium.jpg"},"geometry":{"type":"Point","coordinates":[-75.90098,40.464134]}},{"type":"Feature","properties":{"id":100358195.0,"observed_on":"2021-10-28T21:38:00.000Z","latitude":40.46415,"longitude":-75.90096,"place":"Berks County, PA, USA","inaturl":"https://www.inaturalist.org/observations/100358195","photos":"https://inaturalist-open-data.s3.amazonaws.com/photos/167487185/medium.jpg"},"geometry":{"type":"Point","coordinates":[-75.900955,40.464146]}},{"type":"Feature","properties":{"id":100358194.0,"observed_on":"2021-10-28T21:38:00.000Z","latitude":40.46409,"longitude":-75.90093,"place":"Berks County, PA, USA","inaturl":"https://www.inaturalist.org/observations/100358194","photos":"https://inaturalist-open-data.s3.amazonaws.com/photos/167487175/medium.jpg"},"geometry":{"type":"Point","coordinates":[-75.90093,40.46409]}},{"type":"Feature","properties":{"id":100358191.0,"observed_on":"2021-10-28T21:38:00.000Z","latitude":40.46412,"longitude":-75.90089,"place":"Berks County, PA, USA","inaturl":"https://www.inaturalist.org/observations/100358191","photos":"https://inaturalist-open-data.s3.amazonaws.com/photos/167487159/medium.jpg"},"geometry":{"type":"Point","coordinates":[-75.900894,40.464123]}},{"type":"Feature","properties":{"id":100357556.0,"observed_on":"2021-10-28T20:40:00.000Z","latitude":40.46434,"longitude":-75.90379,"place":"Berks County, PA, USA","inaturl":"https://www.inaturalist.org/observations/100357556","photos":"https://inaturalist-open-data.s3.amazonaws.com/photos/167485810/medium.jpg"},"geometry":{"type":"Point","coordinates":[-75.90379,40.464344]}},{"type":"Feature","properties":{"id":100356267.0,"observed_on":"2021-10-28T20:37:00.000Z","latitude":40.46432,"longitude":-75.9038,"place":"Berks County, PA, USA","inaturl":"https://www.inaturalist.org/observations/100356267","photos":"https://inaturalist-open-data.s3.amazonaws.com/photos/167483756/medium.jpg"},"geometry":{"type":"Point","coordinates":[-75.9038,40.46432]}},{"type":"Feature","properties":{"id":100356255.0,"observed_on":"2021-10-28T19:53:00.000Z","latitude":40.46583,"longitude":-75.90234,"place":"Berks County, PA, USA","inaturl":"https://www.inaturalist.org/observations/100356255","photos":"https://inaturalist-open-data.s3.amazonaws.com/photos/167481930/medium.jpg"},"geometry":{"type":"Point","coordinates":[-75.902336,40.46583]}},{"type":"Feature","properties":{"id":100352915.0,"observed_on":"2021-10-28T19:40:00.000Z","latitude":40.46388,"longitude":-75.90132,"place":"Berks County, PA, USA","inaturl":"https://www.inaturalist.org/observations/100352915","photos":"https://inaturalist-open-data.s3.amazonaws.com/photos/167477346/medium.jpg"},"geometry":{"type":"Point","coordinates":[-75.90132,40.46388]}},{"type":"Feature","properties":{"id":100352914.0,"observed_on":"2021-10-28T19:40:00.000Z","latitude":40.46386,"longitude":-75.90133,"place":"Berks, Pennsylvania, United States","inaturl":"https://www.inaturalist.org/observations/100352914","photos":"https://inaturalist-open-data.s3.amazonaws.com/photos/167477340/medium.jpg"},"geometry":{"type":"Point","coordinates":[-75.90133,40.46386]}},{"type":"Feature","properties":{"id":100352911.0,"observed_on":"2021-10-28T19:40:00.000Z","latitude":40.46385,"longitude":-75.90133,"place":"Berks County, PA, USA","inaturl":"https://www.inaturalist.org/observations/100352911","photos":"https://inaturalist-open-data.s3.amazonaws.com/photos/167477335/medium.jpg"},"geometry":{"type":"Point","coordinates":[-75.90133,40.46385]}},{"type":"Feature","properties":{"id":100352906.0,"observed_on":"2021-10-28T19:38:00.000Z","latitude":40.4638,"longitude":-75.90118,"place":"Berks, Pennsylvania, United States","inaturl":"https://www.inaturalist.org/observations/100352906","photos":"https://inaturalist-open-data.s3.amazonaws.com/photos/167477292/medium.jpg"},"geometry":{"type":"Point","coordinates":[-75.90118,40.4638]}},{"type":"Feature","properties":{"id":100348125.0,"observed_on":"2021-11-05T20:38:00.000Z","latitude":40.44983,"longitude":-74.43628,"place":"Milltown, NJ, USA","inaturl":"https://www.inaturalist.org/observations/100348125","photos":"https://inaturalist-open-data.s3.amazonaws.com/photos/167468781/medium.jpeg"},"geometry":{"type":"Point","coordinates":[-74.43628,40.449833]}},{"type":"Feature","properties":{"id":100348123.0,"observed_on":"2021-11-05T20:38:00.000Z","latitude":40.44967,"longitude":-74.43623,"place":"Milltown, NJ, USA","inaturl":"https://www.inaturalist.org/observations/100348123","photos":"https://inaturalist-open-data.s3.amazonaws.com/photos/167468769/medium.jpeg"},"geometry":{"type":"Point","coordinates":[-74.436226,40.449673]}},{"type":"Feature","properties":{"id":100348122.0,"observed_on":"2021-11-05T20:43:00.000Z","latitude":40.44959,"longitude":-74.43622,"place":"Milltown, NJ, USA","inaturl":"https://www.inaturalist.org/observations/100348122","photos":"https://inaturalist-open-data.s3.amazonaws.com/photos/167475149/medium.jpeg"},"geometry":{"type":"Point","coordinates":[-74.43622,40.44959]}},{"type":"Feature","properties":{"id":100348119.0,"observed_on":"2021-11-05T20:02:00.000Z","latitude":40.45384,"longitude":-74.43533,"place":"Milltown, NJ, USA","inaturl":"https://www.inaturalist.org/observations/100348119","photos":"https://inaturalist-open-data.s3.amazonaws.com/photos/167467611/medium.jpeg"},"geometry":{"type":"Point","coordinates":[-74.43533,40.453835]}},{"type":"Feature","properties":{"id":100326764.0,"observed_on":"2021-11-05T16:52:51.000Z","latitude":39.13582,"longitude":-78.05162,"place":"Janeville Rd, Berryville, VA, US","inaturl":"https://www.inaturalist.org/observations/100326764","photos":"https://inaturalist-open-data.s3.amazonaws.com/photos/167432016/medium.jpg"},"geometry":{"type":"Point","coordinates":[-78.05162,39.13582]}},{"type":"Feature","properties":{"id":100313047.0,"observed_on":"2021-11-05T12:29:00.000Z","latitude":40.47361,"longitude":-74.42512,"place":"North Brunswick Township, NJ, USA","inaturl":"https://www.inaturalist.org/observations/100313047","photos":"https://inaturalist-open-data.s3.amazonaws.com/photos/167406878/medium.jpeg"},"geometry":{"type":"Point","coordinates":[-74.42512,40.473606]}},{"type":"Feature","properties":{"id":100313043.0,"observed_on":"2021-11-05T12:13:00.000Z","latitude":40.47333,"longitude":-74.42163,"place":"North Brunswick Township, NJ, USA","inaturl":"https://www.inaturalist.org/observations/100313043","photos":"https://inaturalist-open-data.s3.amazonaws.com/photos/167406597/medium.jpeg"},"geometry":{"type":"Point","coordinates":[-74.42163,40.47333]}},{"type":"Feature","properties":{"id":100279947.0,"observed_on":"2021-10-28T16:02:00.000Z","latitude":40.44519,"longitude":-75.62663,"place":"Berks County, PA, USA","inaturl":"https://www.inaturalist.org/observations/100279947","photos":"https://inaturalist-open-data.s3.amazonaws.com/photos/167347699/medium.jpg"},"geometry":{"type":"Point","coordinates":[-75.626625,40.445187]}},{"type":"Feature","properties":{"id":100279238.0,"observed_on":"2021-10-27T20:27:00.000Z","latitude":40.46226,"longitude":-75.89637,"place":"Berks, Pennsylvania, United States","inaturl":"https://www.inaturalist.org/observations/100279238","photos":"https://inaturalist-open-data.s3.amazonaws.com/photos/167346010/medium.jpg"},"geometry":{"type":"Point","coordinates":[-75.89637,40.46226]}},{"type":"Feature","properties":{"id":100279223.0,"observed_on":"2021-10-27T20:11:00.000Z","latitude":40.46206,"longitude":-75.8957,"place":"Berks County, PA, USA","inaturl":"https://www.inaturalist.org/observations/100279223","photos":"https://inaturalist-open-data.s3.amazonaws.com/photos/167344550/medium.jpg"},"geometry":{"type":"Point","coordinates":[-75.8957,40.462063]}},{"type":"Feature","properties":{"id":100279207.0,"observed_on":"2021-10-27T19:53:00.000Z","latitude":40.46175,"longitude":-75.89381,"place":"Berks County, PA, USA","inaturl":"https://www.inaturalist.org/observations/100279207","photos":"https://inaturalist-open-data.s3.amazonaws.com/photos/167344471/medium.jpg"},"geometry":{"type":"Point","coordinates":[-75.89381,40.46175]}},{"type":"Feature","properties":{"id":100249358.0,"observed_on":"2021-11-04T15:20:26.000Z","latitude":40.81588,"longitude":-74.72646,"place":"Columbia Trail, Long Valley, NJ, US","inaturl":"https://www.inaturalist.org/observations/100249358","photos":"https://inaturalist-open-data.s3.amazonaws.com/photos/167291050/medium.jpg"},"geometry":{"type":"Point","coordinates":[-74.72646,40.81588]}},{"type":"Feature","properties":{"id":100227938.0,"observed_on":"2021-09-19T17:13:00.000Z","latitude":39.73361,"longitude":-76.03948,"place":"Chester County, PA, USA","inaturl":"https://www.inaturalist.org/observations/100227938","photos":"https://inaturalist-open-data.s3.amazonaws.com/photos/167251275/medium.jpg"},"geometry":{"type":"Point","coordinates":[-76.03948,39.73361]}},{"type":"Feature","properties":{"id":100201801.0,"observed_on":"2021-11-03T14:05:34.000Z","latitude":40.77302,"longitude":-74.68031,"place":"Chester, NJ, US","inaturl":"https://www.inaturalist.org/observations/100201801","photos":"https://inaturalist-open-data.s3.amazonaws.com/photos/167205428/medium.jpg"},"geometry":{"type":"Point","coordinates":[-74.680305,40.773018]}},{"type":"Feature","properties":{"id":100201728.0,"observed_on":"2021-11-03T14:06:02.000Z","latitude":40.77058,"longitude":-74.68001,"place":"Chester, NJ, US","inaturl":"https://www.inaturalist.org/observations/100201728","photos":"https://inaturalist-open-data.s3.amazonaws.com/photos/167205147/medium.jpg"},"geometry":{"type":"Point","coordinates":[-74.68001,40.77058]}},{"type":"Feature","properties":{"id":100201643.0,"observed_on":"2021-11-03T14:13:14.000Z","latitude":40.77448,"longitude":-74.68115,"place":"Cooper Ln, Chester, NJ, US","inaturl":"https://www.inaturalist.org/observations/100201643","photos":"https://inaturalist-open-data.s3.amazonaws.com/photos/167205129/medium.jpg"},"geometry":{"type":"Point","coordinates":[-74.681145,40.774483]}},